State,District,Latitude,Longitude,Population,Literacy_ratio,Male %,Female %,Male_Literacy %,Female_Literacy %,% of pop aged(0-29)yr,% of pop aged(30-49)yr,% of pop aged(50)yr,% of Workers,% of Agricultural_Workers,% of Household_Workers,% of Hindus,% of Muslims,% of Christians,% of Sikhs,% of Buddhists,% of Jains
Andhra Pradesh,Adilabad,19.284513950073435,78.81321233480176,2741239,54.0,49.96269934872516,50.03730065127484,57.73092877121806,42.26907122878193,56.046845970015745,25.701918001312546,15.413541103128914,48.28717962935738,17.68951922834893,3.088420965847925,87.54803940845727,10.067345459480185,0.5625923168319144,0.05023275971194048,0.9306010895073359,0.022508070255822275
Andhra Pradesh,Anantapur,14.312065561843148,77.4601584478577,4081148,57.0,50.58613409756274,49.41386590243725,57.9185273652508,42.0814726347492,53.64657199395856,27.065056204773757,18.122645882972144,49.891991175032125,21.55121549132744,2.581209992874554,88.19508628454543,10.865962224354519,0.5014030365965655,0.02283671163113908,0.008355492131135652,0.03472062272674257
Andhra Pradesh,Chittoor,13.33109263067696,78.92763898886037,4174064,64.0,50.07599308491676,49.92400691508323,55.65449394612497,44.34550605387503,51.46492722679863,27.76797384994576,19.34397747614795,46.318336278504596,17.92241326438694,1.3720201702705084,89.54314068974504,9.531957344209383,0.5780697181451937,0.02077112377769004,0.006061239118518547,0.03167177120427478
Andhra Pradesh,East Godavari,16.782718320784902,82.2432074720511,5154296,64.0,49.85526636421346,50.14473363578653,52.2089949543526,47.7910050456474,52.85548210657672,28.69361790630573,18.394791451635683,40.620115724824494,21.76914170237798,1.12242292642875,96.68303876998915,1.5089742614704316,1.5099055234701306,0.014318153245370464,0.008012733455742549,0.08049595909897297
Andhra Pradesh,Guntur,15.884925767634847,80.58657614107885,4887813,61.0,49.930735893537666,50.06926410646234,55.21900284450864,44.780997155491356,52.85517265083587,28.065946876445558,18.995448475627033,48.725759352904866,25.122810549421594,0.9704953933384931,86.28801879286299,11.452361209399786,1.836465511262399,0.015630712549764076,0.006608272452321723,0.06714659501089751
Andhra Pradesh,Hyderabad,17.38971555555556,78.46668888888888,3943323,73.0,51.18969457992662,48.81030542007338,53.34043299892295,46.65956700107705,57.03641319770153,27.089918832416217,13.761718225973373,35.84025452644888,0.5839998397290813,1.1705102523937299,51.88646732717558,43.45079010773401,2.2194986309769704,0.29026280626770873,0.03215562103332646,0.4960283496939003
Andhra Pradesh,Karimnagar,18.515483193277312,79.43765428571413,3776269,58.0,49.80577390011146,50.19422609988854,56.97034070152242,43.02965929847759,51.379655421793316,27.321544095508028,19.291369338360166,49.699001845472345,20.042507565006623,4.457839205840474,92.44942561030477,6.48054998200605,0.6614730041742259,0.05523970882370932,0.00879174656254626,0.008262123275645883
Andhra Pradesh,Khammam,17.683921325051784,80.67008643892335,2797370,58.0,49.72484869716913,50.27515130283088,55.30739758832167,44.69260241167832,54.715750865991986,27.68968709895366,17.08586994212421,50.406703439301914,28.76047859239214,0.7077719429321112,92.77717999406585,5.679870735726772,1.1962307453071994,0.023414850377318695,0.007757286308210926,0.016408269195708827
Andhra Pradesh,Krishna,16.143872753151673,81.14805061000413,4517398,67.0,50.19205746316796,49.807942536832044,53.12653876542587,46.87346123457414,51.82060557869818,28.437388071628845,18.461047709322933,45.355312947851836,22.29106224423883,1.072387245932282,89.07069954872252,6.796899454066256,3.223050083255892,0.030836335430263175,0.019103917786300873,0.13990354624498438
Andhra Pradesh,Kurnool,15.43759715142429,77.90086836581717,4053463,52.0,50.30826727664716,49.69173272335285,58.59307311482299,41.406926885177,58.43605825438644,25.993033611013594,15.024856523915478,50.066449354539564,25.590513592945097,1.499729983966796,82.11201138384635,16.547258479971326,0.8181892865433829,0.018181984145408506,0.0062909171737844894,0.055138038758464056
Andhra Pradesh,Mahbubnagar,16.639546224256293,77.98933089244859,4053028,48.0,50.58899173654857,49.41100826345142,59.69074215493192,40.30925784506809,58.2496345941849,25.35203309723002,15.727253796420849,51.38136228025072,22.97255286664686,1.4272292222012777,90.63485374391689,8.24499608687628,0.52664328990572,0.016234775580134163,0.007155144252642715,0.009573089551811633
Andhra Pradesh,Medak,17.889304978038055,78.13778901903379,3033288,54.0,50.21053061891914,49.789469381080856,58.23617693571155,41.76382306428845,57.22400906211346,25.70603252971693,16.792602614720394,47.545864421710036,18.82870996753358,2.2299893712697245,86.94568402340957,11.28969619765746,1.1308190979557498,0.04315449110008677,0.01826400922035758,0.015066159230511578
Andhra Pradesh,Nalgonda,17.113250515463907,79.16984453608244,3488809,57.0,50.44047983136939,49.55952016863061,58.00829477381274,41.99170522618726,55.387067621070685,25.714706652040853,18.68110292079618,49.92228006749581,24.73999006537761,1.293392673545614,93.1329574075279,5.40717476938405,1.0039242618326196,0.026857302879005413,0.006907801487556355,0.0071657691779630234
Andhra Pradesh,Nizamabad,18.429485849056604,78.07523490566035,2551335,54.0,49.01908216678719,50.980917833212814,56.85769997337765,43.142300026622344,54.864335730117766,26.511649783348716,17.150746569932995,49.428083728714576,17.570448412301793,6.7145631600711,83.22803551865984,15.34867040196603,0.7703026062825932,0.09238300732753638,0.07239347243697906,0.02124378021702364
Andhra Pradesh,Prakasam,15.489039001601704,80.11665790176184,3397448,56.0,50.47211907290413,49.52788092709587,58.163497310225864,41.83650268977413,53.94328331147379,27.00235588594733,18.8879123389085,50.054246599212114,26.173115821051567,1.2539706273650104,92.72239045306948,6.494698373602775,0.5526206729286217,0.007829406071851577,0.002855084169058658,0.0060045069122470745
Andhra Pradesh,Srikakulam,18.570900998697432,84.25874814010675,2703114,55.0,49.63675227903818,50.36324772096182,57.36491235344035,42.63508764655964,52.64739112001936,27.64903736949311,19.560255320345348,47.73339193241573,25.92687544809431,1.2755288900135178,98.66213559620498,0.3338741910256097,0.6984167149443198,0.0071399134479714875,0.002848566505149246,0.005919099231478954
Andhra Pradesh,Vizianagaram,18.28329696032972,83.45982854198873,2344474,53.0,49.541048439863275,50.45895156013673,57.130963801328825,42.869036198671175,51.455720984749675,28.424030294215246,19.25672880142838,49.391121419985886,23.76882831714065,1.1716487365609514,98.06587746334571,0.7004982780785797,0.7614927698067882,0.016208326473230242,0.0048624979419690725,0.03476259493600697
Andhra Pradesh,Warangal,18.01752608695651,79.87422028985509,3512576,59.0,50.08520812076379,49.91479187923621,57.132051313714186,42.867948686285814,53.862293655710225,26.80232399242038,18.928330661030536,48.558522292471395,21.582223416660593,1.2398308250127543,93.20097273340136,5.617899797755266,0.8932760458421398,0.041365653013628746,0.007202691130384083,0.01619893775963851
Andhra Pradesh,West Godavari,16.63297943925236,81.45912990654196,3936966,67.0,49.90944803688932,50.09055196311068,51.99927310813006,48.00072689186993,52.10898443115841,28.645510273647268,19.19074231273524,45.03752381910334,26.969676649480846,0.8600785477954345,94.82405994870162,2.1880300718878445,2.7716774795616725,0.0073152778052947365,0.005308656462870139,0.040081626308177416
Arunachal Pradesh,Changlang,27.36048479338845,96.37552644628106,148226,49.0,51.91261991823297,48.08738008176704,60.16754584961872,39.83245415038129,65.19099213363377,23.624735201651532,11.073630807010916,42.4797269035122,2.8389081537651966,0.334624155006544,32.16912012737306,1.4396934410967037,24.266323047238675,0.06341667453753053,33.989313615694954,0.06409132001133404
Arunachal Pradesh,East Kameng,27.371194055944056,93.04741486013997,78690,49.0,49.27563858177659,50.72436141822341,56.175713282530104,43.824286717469896,68.30855254797305,22.775447960350743,8.844834159359511,40.29736942432329,1.3508705045113736,0.3469309950438429,15.672893633244378,0.8285677976871266,47.19278180200788,0.045749142203583684,0.5744058965561062,0.02922861863006735
Arunachal Pradesh,East Siang,28.15382352941176,95.06499226006191,99214,63.0,50.51303243493862,49.486967565061384,54.66952186141651,45.33047813858348,62.48412522426271,25.534702763722862,11.89549861914649,40.54064950511017,3.593242889108392,0.4969056786340637,28.074666881690085,2.307134073820227,18.39861309895781,0.06954663656338823,0.782147680770859,0.03023766807103836
Arunachal Pradesh,Kurung Kumey,28.04853351800553,93.24531994459834,92076,40.0,49.218037273556625,50.781962726443375,55.34065453750752,44.65934546249249,69.91941439680264,22.49554715669664,7.424301663842912,41.318041617793995,3.200616881706417,0.904687432121291,5.277162344150485,0.5115339502150398,55.594291672096965,0.046700551718145876,0.13141318041617794,0.08797080672487945
Arunachal Pradesh,Lohit,27.946785273972623,96.59670770547945,145726,57.0,52.30432455430054,47.695675445699464,58.245647829332306,41.754352170667694,65.11535347158366,24.35598314645293,10.427102919177086,41.82163786832823,5.34496246380193,0.5393684037165639,67.94943935879665,2.639199593758149,7.331567462223624,0.1441060620616774,16.779435378724454,0.07136681168768785
Arunachal Pradesh,Lower Dibang Valley,28.32651730103806,95.76567335640142,54080,59.0,51.873150887573956,48.12684911242604,56.78985211466608,43.210147885333924,64.97781065088756,24.50813609467456,10.451183431952662,41.283284023668635,6.201923076923077,0.4308431952662722,53.46708579881657,4.154955621301775,17.03587278106509,0.06102071005917159,5.421597633136095,0.035133136094674555
Arunachal Pradesh,Lower Subansiri,27.70849297297297,93.96226108108112,83030,65.0,50.39503793809467,49.60496206190533,54.51652884917772,45.48347115082228,66.55184872937492,24.455016259183427,8.926893893773336,36.374804287606885,2.3702276285679873,0.5239070215584728,11.503071179091895,1.7848970251716247,41.433216909550765,0.03251836685535348,0.23244610381789715,0.015656991448873902
Arunachal Pradesh,Papum Pare,27.273529716981127,93.54468183962264,176573,69.0,50.50715568065333,49.49284431934667,54.35364483510673,45.646355164893265,68.29583231864441,24.812400536888426,6.714503349889281,37.24918305743234,1.0528223454322008,0.873859536848782,32.296557231286776,3.4818460353508183,47.797228341818965,0.17556478057234118,2.7002995928029767,0.0787209822566304
Arunachal Pradesh,Tawang,27.680683962264148,91.82504245283016,49977,52.0,58.328831262380696,41.671168737619304,67.9630268860507,32.036973113949294,61.446265282029735,27.710746943594057,10.802969365908318,57.14828821257778,3.1634551893871183,0.22810492826700282,23.694899653840768,1.5747243732116774,1.5527142485543348,2.3290713728315025,69.87214118494508,0.14406627048442283
Arunachal Pradesh,Tirap,26.94406229508198,95.41470327868862,111975,43.0,51.44362580933244,48.55637419066756,61.101846833701586,38.898153166298414,64.10805983478454,22.92386693458361,12.88055369502121,44.80375083724046,1.617325295824961,0.7465952221478008,18.470194239785666,0.9850413038624692,74.44608171466845,0.05447644563518643,0.6947979459700826,0.038401428890377315
Arunachal Pradesh,Upper Siang,28.8309244897959,95.00155765306124,35320,52.0,52.94167610419026,47.05832389580974,58.93377301456444,41.06622698543556,59.71121177802945,25.226500566251413,14.869762174405436,49.954699886749715,2.276330690826727,1.673272933182333,14.89524348810872,1.1636466591166479,15.976783691959229,0.07644394110985277,7.296149490373725,0.019818799546998868
Arunachal Pradesh,Upper Subansiri,28.277196566523585,93.8991435622318,83448,54.0,50.04074393634359,49.95925606365641,54.78819735854057,45.21180264145943,67.17237081775477,24.032930687374172,8.66407822835778,39.98897517016585,2.212156073243217,0.5764068641549228,16.146582302751415,0.624340906912089,10.52032403412904,0.03355382993001629,0.3559102674719586,0.013181861758220689
Arunachal Pradesh,West Kameng,27.46486582278483,92.65015750452083,83947,58.0,54.9811190393939,45.0188809606061,60.97088179493525,39.029118205064755,63.16604524283179,26.638236029875994,10.117097692591754,50.61884284131655,2.031043396428699,0.9541734665920164,37.24373711984943,2.346718763029054,10.084934542032473,0.390722717905345,42.9878375641774,0.0845771736929253
Arunachal Pradesh,West Siang,28.106296920289843,94.53510344202908,112274,58.0,51.808967347738566,48.191032652261434,56.801964600129736,43.198035399870264,62.7171028020735,25.21064538539644,11.99654416873007,43.800879990024406,1.2326985766962966,0.265422092381139,14.144859896325062,1.9755241640985446,26.692733847551526,0.5139212996775745,2.949035395550172,0.04364322995528796
Assam,Barpeta,26.427872264631056,90.97912010178116,1693622,53.0,51.19229674626333,48.80770325373667,55.63051664440872,44.36948335559128,63.31471839643085,23.915962357598094,12.715647293197655,33.17292760722286,5.842271770206103,1.7915449846541909,29.107203378321728,70.73809858398154,0.06022595360712131,0.006613045886272144,0.0028932075752440625,0.02355897596984451
Assam,Bongaigaon,26.45012521994133,90.6734296187684,738804,59.0,50.86843059864321,49.13156940135679,54.62474486152258,45.375255138477414,62.099826205597154,25.020032376651997,12.850363560565453,34.624338796216584,6.4165868078678505,1.2838317063795,48.61167508567902,50.220762204860826,0.8018364816649612,0.051975896178147386,0.03194351952615308,0.11789324367491243
Assam,Cachar,24.815570668693017,92.86849650455927,1736617,68.0,51.03508718387532,48.96491281612468,54.50393824182712,45.49606175817287,60.404222692741115,25.61871731072539,13.922240770417426,35.01416835145573,3.9538942668417967,1.40883107789455,59.82810256953606,37.706414252538124,2.1671445114265264,0.01612330179884223,0.01963587826216143,0.09633672824808234
Assam,Darrang,26.58463215962442,92.04141338028155,928500,52.0,51.18718362950996,48.81281637049003,55.163138886208294,44.83686111379171,62.836402800215396,24.396876682821755,12.71965535810447,34.985783521809374,8.790199246095852,1.135379644588045,35.252773290253096,64.33947226709746,0.1817985998922994,0.046418955304254175,0.006138933764135703,0.07797522886375875
Assam,Dhemaji,27.586533438485816,94.71336908517353,686133,62.0,51.1925530472955,48.8074469527045,56.2045538356799,43.79544616432009,63.285252276162204,24.722612088326898,11.958468693387433,46.17180634075318,2.7955221509532406,1.0528570991338413,95.47012022450457,1.9639049572021752,1.2695789300325155,0.04328606844445611,0.13277309209730476,0.024339304478869256
Assam,Dibrugarh,27.30612284482757,95.0998282327587,1326335,67.0,51.000237496560075,48.99976250343993,55.55045555215137,44.44954444784863,57.83961065643295,28.03695898849084,14.08196270173071,42.26360610253066,4.614897442953703,1.0828335224509644,90.35432224890394,4.864985090493729,3.9935612043714444,0.17046975311667115,0.3523242619700151,0.07954249868999913
Assam,Goalpara,26.017277777777807,90.59869891598912,1008183,56.0,50.91258233872223,49.08741766127777,53.99475138268595,46.005248617314045,64.52290903536363,23.788439202009954,11.64738941243802,35.963014651109965,7.521253581938993,1.4229559514492904,34.50544196837281,57.522195871186085,7.723002669158278,0.07647421152707395,0.019242538309017312,0.04731283903815081
Assam,Golaghat,26.377219709794485,93.82583397823468,1066888,68.0,50.91077976319913,49.08922023680086,54.93139031594815,45.06860968405185,58.97085729711085,27.09609631001567,13.89499178920374,44.98391583746373,6.243954379466261,1.412331941122217,85.99084439978705,8.464993513845878,4.741078726164321,0.1060092530799859,0.3620811181679801,0.0496771919826636
Assam,Hailakandi,24.457496089385486,92.59154664804475,659296,62.0,51.2501213415522,48.7498786584478,55.68358674999877,44.31641325000123,63.69233242731641,23.698460175702568,12.56506940736786,32.495267679464156,4.739601028976362,1.1092134640586322,38.10033732951512,60.314790321797794,1.286220453332039,0.012740862981119254,0.07432170072319565,0.03746420424210067
Assam,Jorhat,26.76244824016563,94.30197722567289,1092256,73.0,50.97751809099699,49.02248190900302,54.38661817596289,45.61338182403711,55.381522280491026,28.889747458471277,15.661346790496001,45.65028711217883,4.866350013183722,2.8878761023056865,92.30610772566138,5.006518618345882,1.9272954325725837,0.14099258781824042,0.21771452846219203,0.06582705885799667
Assam,Kamrup,26.170939452054807,91.58863273972592,1517542,66.0,51.29749291947109,48.7025070805289,55.280668810702906,44.7193311892971,59.028020311793675,26.900869959447583,14.018722381324537,41.44557448821845,6.5581051463485025,4.5538113607399335,57.823440800979476,39.65517923062426,2.194140261027372,0.021020835008190877,0.012190766384060539,0.087641725896219
Assam,Karbi Anglong,26.08966454598031,93.11536570271832,956313,58.0,51.255917257216,48.74408274278401,56.39718312892354,43.60281687107646,64.68938516991821,24.441683842005705,10.783394139784777,40.095763625507544,6.37364544871815,1.031147751834389,80.09929803317533,2.1216902834113935,16.499723416914755,0.03869026145205597,0.6545973964591091,0.04151360485531411
Assam,Karimganj,24.69660712250711,92.3679498575498,1228686,65.0,50.93766837092634,49.06233162907366,54.81499364388398,45.18500635611602,63.47024382144828,23.144074238658206,13.346778591112782,32.48763313002671,5.455665646064169,1.4189955773891783,42.481317439931765,56.36012781133667,0.9758392298764696,0.009278204520927234,0.036298940494153914,0.042647185692683075
Assam,Kokrajhar,26.497246635730868,90.13997470997688,887142,55.0,51.052142723487336,48.94785727651267,56.2471260256895,43.7528739743105,62.29791848430127,25.330217710355274,12.281686584560306,38.452806878718405,6.349603558393133,1.4003395172362485,59.637352306620585,28.436372080230672,11.395131782736021,0.010483101916040499,0.1936555816318019,0.04463772428765632
Assam,Lakhimpur,27.14128805970149,94.0775949253732,1042137,66.0,50.825755155032404,49.1742448449676,54.94655340416629,45.05344659583371,61.35325777704851,25.80006275566456,12.821250948771612,41.26088988300003,4.214609019735409,1.0538921466179592,76.48994326081888,18.565313389698286,4.434829585745445,0.03953414954079934,0.1030574674922779,0.02398916841067921
Assam,Nagaon,26.26462170626351,92.9306191144708,2823768,61.0,50.96424352142244,49.03575647857756,53.8867935998728,46.1132064001272,62.975322335262675,24.011675180113947,12.965371092809324,34.705329899623486,6.947242124707128,1.3500400882792072,43.390462672570834,55.35876176796394,0.9506446705253406,0.10751591490519051,0.03799887242861312,0.04115068943340955
Assam,Nalbari,26.46323767605632,91.40598521126763,771639,69.0,51.32011212497035,48.67988787502964,55.13350671623688,44.86649328376313,57.288576653072234,27.385863078460265,15.267372437111138,34.68240977970268,4.533726263187838,2.501428776928071,63.70621495284712,35.96085734391341,0.055595945772569814,0.008034845309788645,0.0034990455381337647,0.1301126563069
Assam,Sonitpur,26.73514926829268,92.85197804878044,1924110,58.0,51.13553798899231,48.86446201100769,55.97516444579153,44.02483555420847,60.28714574530562,26.050433707012594,13.598390944384677,40.04999714153556,5.9697730379240275,1.3366699409077443,73.94712360519928,18.2180852446066,7.180774487945076,0.07083794585548643,0.2644339460841636,0.0521279968400975
Assam,Tinsukia,27.53549291139241,95.69055949367085,1327929,60.0,51.22495253887821,48.77504746112179,56.800263552802,43.199736447198,60.23469628270789,26.519339512880585,13.20680548432936,41.959773451743274,3.5962766081620328,0.9971165627077955,88.96160864022097,3.6427399356441494,5.789240237994652,0.15053515662358455,1.2220532874875087,0.06303047828611319
Bihar,Araria,26.211528119180603,87.30766554934816,2811569,43.0,52.04684644054619,47.95315355945382,60.85151969278322,39.14848030721678,66.6155801262569,21.767632236662163,11.527051265681191,38.05323646689802,24.610706690819253,0.8666691089566004,56.67742815488433,42.94548702165943,0.14639512670683166,0.013195479107928705,0.006651090547662177,0.0679335986418971
Bihar,Aurangabad,24.77429186746988,84.45986024096379,2540073,58.0,51.91520086233742,48.08479913766258,59.258650397475584,40.741349602524416,64.05205677159672,22.22656592940439,13.422763833952803,32.98212295473398,16.77495095613394,1.600426444436833,90.19949426650336,9.344337741474359,0.08732032504577623,0.011613839444771863,0.013149228388317974,0.030510934134570147
Bihar,Aurangabad,24.77429186746988,84.45986024096379,3701282,68.0,51.99466022853703,48.00533977146297,57.149726599614915,42.85027340038509,59.762968614658384,24.57988880609475,15.45226761970582,42.55495798482796,10.716016774728324,0.7573862245567887,68.77179312465248,21.254176255686545,0.43203949334311736,0.13892483739417855,8.350971366137463,0.8370343032495228
Maharashtra,Aurangabad,20.0979228832952,75.32072196796334,2540073,58.0,51.91520086233742,48.08479913766258,59.258650397475584,40.741349602524416,64.05205677159672,22.22656592940439,13.422763833952803,32.98212295473398,16.77495095613394,1.600426444436833,90.19949426650336,9.344337741474359,0.08732032504577623,0.011613839444771863,0.013149228388317974,0.030510934134570147
Maharashtra,Aurangabad,20.0979228832952,75.32072196796334,3701282,68.0,51.99466022853703,48.00533977146297,57.149726599614915,42.85027340038509,59.762968614658384,24.57988880609475,15.45226761970582,42.55495798482796,10.716016774728324,0.7573862245567887,68.77179312465248,21.254176255686545,0.43203949334311736,0.13892483739417855,8.350971366137463,0.8370343032495228
Bihar,Banka,24.832355642023337,86.8664916342413,2034763,47.0,52.44541993342714,47.55458006657287,61.21911778568994,38.78088221431006,63.45874187804673,22.7092786727496,13.704937626642513,37.895322452786885,22.7355225153986,1.3112092169948046,87.11849979579931,12.331903027527039,0.30165675314520657,0.00683126241237923,0.005553472320855057,0.004619702638587393
Bihar,Begusarai,25.54302613168723,86.12560144032932,2970541,52.0,52.773552023015334,47.226447976984666,59.30929253625523,40.69070746374477,65.70143283664491,21.708974897165195,12.455508946013538,31.58286655528404,14.504765293594668,1.9581281658795486,85.98871384034086,13.712922999547894,0.07436355869183425,0.013532888453652046,0.007709033472354026,0.00929123684877603
Bihar,Bhagalpur,25.27719288537548,87.04213814229242,3037766,52.0,53.18589384435799,46.81410615564201,59.60773419551373,40.39226580448627,64.28668304273602,22.20908391232241,13.090343364169591,32.376687341948,15.643996278844389,1.9903113011337938,81.89788153531246,17.68069034942125,0.11705970769308761,0.01366135508791658,0.0059254070260843,0.03456487431882509
Bihar,Bhojpur,25.50666439393939,84.49407803030304,2728407,59.0,52.42546291663963,47.57453708336036,60.87517689073765,39.12482310926235,63.127935091795315,22.469961409716365,14.198358236142921,30.145539136939615,13.373188091072924,1.7587185489554895,92.29620067680519,7.250347913636052,0.07935033153044982,0.019938374296796627,0.023713470900785696,0.05395089515603794
Bihar,Buxar,25.48593018867924,84.08808081760995,1706352,58.0,52.03949712603261,47.960502873967386,59.96562966315655,40.034370336843445,62.98548013539996,21.998509100115335,14.885439815465975,31.54812137237803,14.756040957551548,1.530868191322775,93.26645381492213,6.178268024417002,0.12453467983159394,0.014533929693287201,0.2982971860436768,0.005684641855842171
Bihar,Darbhanga,26.146187719298258,85.97387352472099,3937385,46.0,52.317693088179084,47.682306911820916,61.95887559079044,38.04112440920956,64.39156953155457,21.99355663720972,13.443287867455176,31.07747908827813,16.308158841464575,1.1389792971731239,77.27791414860371,22.38734591613469,0.08975500236832314,0.021130775882978167,0.006222403955925062,0.005993825851421692
Bihar,Gaya,24.7266541547278,84.94291217765044,4391418,52.0,51.61353348736103,48.38646651263897,59.57500240466954,40.42499759533046,63.98903497685713,21.328646009102297,12.23597935792038,37.893500459304946,17.841731304102684,1.9851902050772665,88.2720569984456,11.115339054492193,0.089788765268986,0.020790551024748725,0.019811368446365163,0.03923561819895077
Bihar,Gopalganj,26.44874364161851,84.34636127167629,2562012,54.0,49.47931547549348,50.52068452450652,57.40463832919498,42.59536167080502,64.12175274745006,21.319260019078754,14.467613734830282,28.42301285083754,13.218751512483157,1.0167399684310612,82.71866017801635,17.020099827791597,0.09613538109891757,0.010577624148520773,0.0065183145121880766,0.005191232515694696
Bihar,Jamui,24.78418380462726,86.26316298200514,1760405,49.0,52.03711645899665,47.96288354100335,62.23998006028503,37.76001993971497,64.52600395931618,22.270557059313056,12.895668894373738,41.329750824384156,18.828962653480307,6.0007214248993845,86.67016964846157,12.36198488416018,0.4796055453148565,0.009202427850409423,0.009032012519846287,0.004942044586330987
Bihar,Jehanabad,25.155679045643165,84.9208124481328,1125313,55.0,52.03725541249412,47.96274458750588,60.49822179061888,39.50177820938113,63.47069659730226,22.623216829451007,13.783365161515063,32.46901084409404,15.952806019303074,1.339627285919562,92.87344943140265,6.730749578117377,0.061405137948286385,0.013151896405711122,0.022038312896056473,0.005331849894207212
Bihar,Katihar,25.56565356037151,87.70466083591326,3071029,42.0,52.113802897986304,47.88619710201369,59.542411673267246,40.457588326732754,66.88969723177476,21.504290581430524,11.510246239941075,33.004116861156305,21.891392103428526,0.6700360042187814,54.854219872231745,44.4686455256528,0.2819576109505967,0.08967678260283443,0.006903223642629229,0.016509124466099145
Bihar,Khagaria,25.53558891454964,86.56593256351037,1666886,46.0,53.020182543977214,46.979817456022786,60.04377444572333,39.956225554276664,66.86989992117037,21.329053096612487,11.746214198211517,33.64387246638342,19.541288366450978,1.2487956584913424,89.20760027980317,10.53389373958387,0.07517010761383802,0.008578871020573692,0.004739376298079173,0.005159321033352011
Bihar,Kishanganj,26.32433675832129,87.95045007235886,1690400,44.0,51.2878608613346,48.71213913866541,59.045360348752304,40.954639651247696,67.4168835778514,21.362636062470422,11.14807146237577,31.29815428300994,19.040877898722197,0.688180312352106,31.42664458116422,67.97769758637008,0.34210837671557026,0.023544723142451488,0.010825840037860862,0.08731661145291056
Bihar,Lakhisarai,25.183449321266963,86.12825701357468,1000912,51.0,52.586541074540015,47.41345892545998,60.16164961460366,39.83835038539634,65.00491551704846,21.864059977300702,13.05359512124942,32.627843406812985,15.98242402928529,1.3533657304538262,95.55245615998209,4.084874594369935,0.04865562606902505,0.013987243633805968,0.005195261921127931,0.007792892881691897
Bihar,Madhepura,25.77341929460581,86.8978443983403,2001762,42.0,52.33184564398765,47.66815435601235,62.02735038228947,37.97264961771053,65.53081734991473,22.192198672969113,12.108432470993055,38.84307924718323,24.18179583786684,0.8166305484867832,87.61426183532308,12.077359845975694,0.06704093693456066,0.008492518091561334,0.002997359326433412,0.006644146506927397
Bihar,Madhubani,26.41380538172716,86.16328360450552,4487379,48.0,51.9080960177422,48.0919039822578,62.175166957572316,37.824833042427684,63.74444859683125,22.49473467696845,13.635999990194723,36.478710623729356,20.96194682909556,1.224188997630911,81.3875538482486,18.24922744435003,0.0726927678718468,0.012568584021987,0.0073093892893825105,0.009849847761911798
Bihar,Munger,25.198537962962963,86.54173672839504,1367765,59.0,53.30162710699572,46.69837289300428,59.083431755625035,40.916568244374965,62.887045654772564,23.15551282566815,13.768373953127913,31.193808877987085,14.36277430698987,1.2202388568211644,91.55951497516021,8.072731792376613,0.13269823398025246,0.024711847429931308,0.006945637591252883,0.010601236323491242
Bihar,Muzaffarpur,26.18664417177915,85.32745092024543,4801062,52.0,52.644539895548114,47.35546010445189,59.265823168204456,40.734176831795544,62.8347436463016,22.47813088020942,14.519870811916197,32.23424317369782,16.017310336754658,1.3591367909849945,83.99751971542962,15.528772592397267,0.1072471049113717,0.019433200404410524,0.005998672793644406,0.007956572941570011
Bihar,Nalanda,25.229345508982053,85.48053113772461,2877653,53.0,52.02364565845847,47.97635434154153,60.49990361417247,39.50009638582753,63.56318847338439,22.31669349987646,14.00895104447965,36.32891109525714,18.55751892253861,1.8273572247939553,92.77612693399794,6.8817539849314695,0.06873657108761898,0.01365696280962298,0.01438672418112955,0.019495053781675552
Bihar,Nawada,24.825708836206903,85.61594568965519,2219146,49.0,51.58146422092103,48.41853577907898,60.44608125300181,39.5539187469982,64.92502070616354,21.88355340297574,13.014240613280965,36.81781189700903,17.912521303240077,1.8033063169345325,88.53045270568047,11.01297526165471,0.058536031428306205,0.01126559496310743,0.007930978854027632,0.012572403978827891
Bihar,Pashchim Champaran,27.16064352201258,84.30265911949685,3935042,45.0,52.378348185356096,47.62165181464391,62.019766056013104,37.98023394398689,64.65509135607701,22.571677760999755,12.650258879066604,37.58402070422628,25.383032760514375,0.9832423643762886,77.44331572572796,21.984263446235136,0.21522006626612883,0.02353215035570141,0.0339767656863637,0.00752215605322637
Bihar,Patna,25.40297114503818,85.3198433587787,5838465,59.0,52.728105760675106,47.271894239324894,58.619513544464674,41.380486455535326,62.11502509649368,23.681806776267393,13.97007603882185,32.23254742470838,11.273562486030146,1.4618397130067577,91.73772558369366,7.5354052820390285,0.21497088703965853,0.08226477336080631,0.018189712535743557,0.03684187539019246
Bihar,Purba Champaran,26.68129336734693,85.00382155612242,5099371,45.0,52.57921025946142,47.42078974053859,61.81948100029996,38.180518999700034,65.03590344769972,22.009381157009365,12.70762609741476,34.07359456685932,20.736224134309897,0.9052881227900461,80.13641290268937,19.421003100186276,0.09540392334662452,0.013099654839783181,0.017217809804385677,0.009099161445597899
Bihar,Purnia,25.81714801901739,87.40447606973065,3264619,41.0,52.054160071971644,47.945839928028356,60.44023759950643,39.559762400493575,66.02644902820207,21.336517370020818,11.416094803099535,35.02148336452125,22.820886602693914,0.8834108972593738,60.93881093015755,38.462099252623354,0.24471462060350688,0.01880770772944714,0.010812900372141436,0.04441559642947615
Bihar,Rohtas,24.99170460829495,83.9350762672811,2959918,61.0,52.148268972316124,47.851731027683876,58.99345049982443,41.00654950017557,63.352228000910834,22.76218462808767,13.756901373619135,31.246777782357483,13.701190370814325,1.63896432266029,89.37460429647037,10.151869072048617,0.09760405524747645,0.08679294493969089,0.053514996023538486,0.008513749367381123
Bihar,Saharsa,25.821270696721303,86.54670819672135,1900661,42.0,52.46458995054878,47.535410049451215,62.90391505050956,37.09608494949043,65.75038894363593,21.879914408724122,12.30466663965852,34.19326223876851,18.77415278158493,0.9812901932538207,85.72038885419335,14.027751398066252,0.06797635138512338,0.01036481518797934,0.0031567965039530983,0.005734846982181462
Bihar,Samastipur,25.793205563909765,85.94833323308269,4261566,50.0,52.32825210263081,47.67174789736918,60.366189427312776,39.633810572687224,64.92754072094624,21.432004103655792,13.347487754501513,31.523623006190682,16.93342306560546,1.1243988712130706,89.18313127146217,10.61511190956564,0.049887764263184,0.012999915993322642,0.006851941281679083,0.005420542589273521
Bihar,Saran,25.89656077844312,84.82266287425155,3951862,55.0,51.1865292867008,48.8134707132992,59.59649661128349,40.403503388716516,63.66910079349937,21.4337190924177,14.812916038060035,26.32255377338581,12.48679736286338,1.0653965143519688,89.44573469417708,10.284999830459666,0.05895954868869409,0.009387979640989487,0.005794736759532595,0.008148057801613519
Bihar,Sheikhpura,25.12472436548223,85.77839390862943,636342,52.0,51.818518972502204,48.18148102749779,59.76432717934988,40.23567282065012,64.97685207011324,21.513274308469345,13.364668684449557,35.304128911811574,17.23852896712774,1.5584387012015553,93.67635642468987,5.917101181440168,0.049187386656860614,0.011786115013624749,0.0064430762074481965,0.0067573726078115235
Bihar,Sheohar,26.458380748663107,85.29539411764709,656246,43.0,52.826683895978036,47.173316104021964,60.50271767865829,39.49728232134171,64.18949601216617,21.319596614684126,14.232162938897913,32.97117239571746,20.77483138944847,1.3895703745241876,84.18977029955231,15.137920840660362,0.07954334197846538,0.03291448633591672,0.01112387732649037,0.007923857821609578
Bihar,Sitamarhi,26.56570069686413,85.61172491289203,3423574,42.0,52.67162328023288,47.32837671976712,61.60855348783472,38.39144651216528,64.44551804634571,21.61431299571734,13.115971788546121,32.55612409721537,18.574361179282235,1.1079649512468548,78.05617755012744,21.617788895464212,0.08461917282932982,0.00762361204986368,0.007389938117300809,0.005491337415227479
Bihar,Siwan,26.1736372013652,84.33766552901022,3330464,58.0,50.295994792317224,49.70400520768277,57.813721553745125,42.186278446254875,63.51811639459246,21.42635380535565,14.961849159756719,27.996579455595377,11.300047080526918,0.9381275401865926,81.44916143816597,18.26418180770007,0.07860766547844383,0.011079537265678296,0.01222051942311942,0.010779278803193789
Bihar,Supaul,26.28157893772896,86.78496465201461,2229076,46.0,51.82788742958966,48.17211257041034,62.68098865460866,37.31901134539134,65.20360902903266,22.207407912516217,12.454039252138555,39.37425193219074,24.8655048100648,1.0118542391555962,81.19669315895915,18.359670105460737,0.1685900346152397,0.012157503826697698,0.006101182732217296,0.024494454204342965
Bihar,Vaishali,25.8134703180212,85.39247597173153,3495021,55.0,52.776077740305425,47.223922259694575,59.820006850950314,40.17999314904969,62.280054969626796,21.72038451271108,13.906411435009975,30.338701827542668,14.381515876442515,1.0574471512474461,90.19533788208997,9.55587963563023,0.06303252541257978,0.020228776880024467,0.010357591556674482,0.007038584317519122
Chandigarh,Chandigarh,30.7426,76.75872465753424,1055450,76.0,55.01568051541996,44.98431948458004,57.77552089670465,42.22447910329535,57.076223411814865,28.779004216211096,14.11199014638306,38.290397460798715,0.15983703633521246,0.45468757402056,80.7782462456772,4.87441375716519,0.8261878819460894,13.106163247903737,0.10990572741484675,0.18570278080439623
Chhattisgarh,Bastar,19.393866751269048,81.52895126903546,1413199,46.0,49.42594779645329,50.57405220354671,58.74277689774961,41.25722310225039,61.15713356717632,25.3437060173408,13.414175922853044,51.41038169429783,20.3671245167878,0.7657095709804493,90.43135467828664,0.8783617876887827,1.9778530836775288,0.14852826813491943,0.06970002101614847,0.24525916024565544
Chhattisgarh,Bilaspur,22.356942982456143,81.99770350877188,381956,75.0,50.467593125909794,49.532406874090206,54.09881093108964,45.90118906891037,50.70505503251683,28.109782278587065,21.074940569070783,53.899140215103316,1.0833708594707245,0.6704960780822922,97.38634816575731,1.8284828619003237,0.06178722156478757,0.6249410926913047,0.029584559478055064,0.0026181026086774394
Chhattisgarh,Bilaspur,22.356942982456143,81.99770350877188,2663629,60.0,50.741826282864466,49.258173717135534,58.405196171769305,41.594803828230695,61.02516529141258,24.59171303511112,14.270530918532573,45.17134330644395,21.485424584279567,0.8131012239317112,95.38727052453626,2.176466767706764,0.7788246786620809,0.2392600471011541,0.11183989962566109,0.08848829923386478
Himachal Pradesh,Bilaspur,31.3780422907489,76.65316079295157,381956,75.0,50.467593125909794,49.532406874090206,54.09881093108964,45.90118906891037,50.70505503251683,28.109782278587065,21.074940569070783,53.899140215103316,1.0833708594707245,0.6704960780822922,97.38634816575731,1.8284828619003237,0.06178722156478757,0.6249410926913047,0.029584559478055064,0.0026181026086774394
Himachal Pradesh,Bilaspur,31.3780422907489,76.65316079295157,2663629,60.0,50.741826282864466,49.258173717135534,58.405196171769305,41.594803828230695,61.02516529141258,24.59171303511112,14.270530918532573,45.17134330644395,21.485424584279567,0.8131012239317112,95.38727052453626,2.176466767706764,0.7788246786620809,0.2392600471011541,0.11183989962566109,0.08848829923386478
Chhattisgarh,Dhamtari,20.554912627291245,81.7569195519348,799781,68.0,49.75074426624288,50.24925573375712,55.57894274851737,44.42105725148263,57.656408441810946,26.634916308339406,15.682918198856937,50.37566533838639,22.831500123158715,0.9140002075568187,97.17510168408602,1.303481828150456,0.33059049914914207,0.1495409368314576,0.08339783015600521,0.45162363196925165
Chhattisgarh,Durg,21.194463849287164,81.33181639511197,3343872,69.0,50.30398890866636,49.696011091333645,55.77078534222346,44.22921465777653,57.41344166283877,26.86230214553667,15.66016881028939,44.76262847381718,16.759463280891136,0.6748165001531159,93.59643550949318,2.497075246899403,0.7268220793140407,0.7259847266881029,0.5857580672944419,0.5146429049915786
Chhattisgarh,Jashpur,22.77286167664669,83.8703962075848,851669,58.0,49.87230954748852,50.12769045251147,56.65068679793708,43.349313202062916,57.412562861863,25.180557235263933,17.389384843172643,57.224109366432266,23.196570498632685,0.8868468853509991,73.91474857016047,1.800699567555001,22.260760929422112,0.05565542481879698,0.054833509262401235,0.08148705659123438
Chhattisgarh,Korba,22.491712499999995,82.57604326923074,1206640,62.0,50.79518331896837,49.20481668103163,57.881240826487556,42.11875917351244,60.47437512431214,25.64799774580654,13.836686998607703,43.193164489822976,18.38211894185507,0.6546277265795929,93.9116886561029,2.5024033680302327,1.7452595637472652,0.30381886892528015,0.07433865941788768,0.06240469402638732
Chhattisgarh,Koriya,23.50412776859501,82.12515636363635,658917,60.0,50.80108723860517,49.19891276139484,57.795300925285865,42.20469907471413,60.642083904346066,25.044428964497804,14.276911963115232,46.602379358857036,14.36417636819205,0.7330210026452497,91.70487329967204,3.927353521004922,1.42627978941202,0.21110397819452226,0.01274819135035217,0.17528763106734233
Chhattisgarh,Mahasamund,21.223727037773354,82.65925427435384,1032754,62.0,49.57298640334484,50.42701359665516,57.070551113465825,42.929448886534175,56.4068500339868,26.33821800738608,17.218621278639443,48.3425869084022,26.925385909906908,0.5940427245985007,97.60901434417102,1.217133993187148,0.5116416881464512,0.28477255958340514,0.05044763806288816,0.14475857755089788
Chhattisgarh,Raigarh,22.008265068493166,83.27797698630134,1493984,64.0,50.21994880801937,49.78005119198063,57.0338121913877,42.9661878086123,56.35656071283227,26.657380534195813,16.96724998393557,46.19641174202669,21.672788999078975,0.6666068712917943,95.24774027031079,1.1601195193522822,3.1896593270075178,0.14170165142330843,0.052276329599246045,0.027376464540450233
Chhattisgarh,Raigarh,22.008265068493166,83.27797698630134,2634200,74.0,51.03427985726216,48.96572014273784,54.62346790763271,45.37653209236729,53.68438235517424,28.408587047300887,17.56666160504138,40.73225267633437,7.257687343405967,1.2496773213878976,85.01138865689774,8.635069470807077,0.6625161339306052,0.2838432920810873,4.623453040771391,0.46541644522056036
Maharashtra,Raigarh,18.453257637845976,73.0090609418579,1493984,64.0,50.21994880801937,49.78005119198063,57.0338121913877,42.9661878086123,56.35656071283227,26.657380534195813,16.96724998393557,46.19641174202669,21.672788999078975,0.6666068712917943,95.24774027031079,1.1601195193522822,3.1896593270075178,0.14170165142330843,0.052276329599246045,0.027376464540450233
Maharashtra,Raigarh,18.453257637845976,73.0090609418579,2634200,74.0,51.03427985726216,48.96572014273784,54.62346790763271,45.37653209236729,53.68438235517424,28.408587047300887,17.56666160504138,40.73225267633437,7.257687343405967,1.2496773213878976,85.01138865689774,8.635069470807077,0.6625161339306052,0.2838432920810873,4.623453040771391,0.46541644522056036
Chhattisgarh,Raipur,20.88603153846152,82.20032759615388,4063872,65.0,50.39986495637658,49.600135043623425,56.77948731989251,43.22051268010749,60.393117696620365,25.5459571561309,13.784489275252765,43.25096853444203,17.446243385618445,0.8385598759016032,95.511989550852,2.535463715392611,0.5704165879240292,0.41111038930360017,0.20662560238117736,0.42169143122618036
Chhattisgarh,Surguja,23.32719278728607,83.23582493887531,2359886,50.0,50.5587558043058,49.4412441956942,58.47815674347463,41.521843256525365,61.0807471208355,23.811107824700006,15.046362409031621,48.97723873102345,22.177172965134755,0.5357462182495256,90.09736063521713,3.451098909015096,4.128674012219234,0.09758945982983924,0.054536532696918404,0.026399580318710307
Daman and Diu,Daman,20.43161666666668,72.8392366071429,191173,79.0,65.207429919497,34.792570080503,69.38303136722803,30.616968632771968,64.12464103194489,27.654532805364774,8.070177273987436,55.19660203062148,0.2516045675906116,0.21394234541488602,89.72867507440905,8.414891224179147,1.3694402452229133,0.08840160482913383,0.11298666652717695,0.1276330862621814
Daman and Diu,Junagadh,20.72568199498111,70.83985639899612,2743082,67.0,51.19628213812055,48.80371786187945,56.81412923034179,43.18587076965821,55.699683786339605,27.31074025493952,16.82960990593792,40.96519899879041,12.175939326640618,0.35161180015763294,87.38550287596215,12.207363833819041,0.09427352153526582,0.04046543267755029,0.0470638500781238,0.1400249792022258
Gujarat,Junagadh,20.929523011609785,70.54733890140345,2743082,67.0,51.19628213812055,48.80371786187945,56.81412923034179,43.18587076965821,55.699683786339605,27.31074025493952,16.82960990593792,40.96519899879041,12.175939326640618,0.35161180015763294,87.38550287596215,12.207363833819041,0.09427352153526582,0.04046543267755029,0.0470638500781238,0.1400249792022258
Goa,North Goa,15.548723418714054,73.80667997909038,818008,81.0,50.938010386206486,49.061989613793514,53.04768799203692,46.95231200796308,46.56751523212487,31.849688511603798,21.39771249180937,40.05559847825449,1.7261444875844734,1.083363487887649,76.06441501794603,7.083182560561754,16.40191782965448,0.07554938338011365,0.06760325082395281,0.0667475134717509
Goa,South Goa,15.195278658183785,73.941792596877,640537,78.0,50.342603159536445,49.65739684046355,52.56186470870395,47.43813529129605,49.09630513147562,30.42322301443945,20.389922830375138,38.96574280642648,1.9733442408479136,0.9126717113921601,53.340244201349805,9.93275954394516,36.213520842667954,0.1334817504687473,0.08461650146673806,0.08789500060105818
Gujarat,Ahmadabad,22.605425564971743,72.23898135593227,7214225,75.0,52.50807952344153,47.49192047655846,55.658509573638284,44.34149042636172,54.79255221454834,28.331456254829867,16.608187296625765,35.96993440043803,3.728106622679498,0.7606638273688442,83.75696627149833,12.243006005496087,0.7035267128485735,0.20157397364235244,0.06262626962702161,2.901032335420645
Gujarat,Amreli,21.04832649310872,71.43457637825426,1514190,66.0,50.92154881487792,49.07845118512208,56.07262579372932,43.92737420627068,55.2336892992293,25.74921245022091,18.650829816601615,43.39871482442758,13.864508417041455,0.40173293972354857,93.14967078107767,6.545083509995443,0.06069251547031747,0.027407392731427366,0.016048184177679156,0.13558404163282017
Gujarat,Anand,22.282718206229863,72.57782051557454,2092745,74.0,51.95205340354415,48.04794659645585,56.37255818361028,43.62744181638972,54.23317222117363,27.95816021541086,17.50901328159905,40.3677466676542,16.549030101612953,0.7865267865889058,85.95380708113028,11.98994621896122,1.423441460856435,0.07282301474857185,0.012758362820123808,0.410513464373347
Gujarat,Banas Kantha,24.258538965517253,71.93205252873561,3120506,55.0,51.60634204837292,48.39365795162708,61.49263045897088,38.50736954102912,63.6018966154848,23.663213594205555,12.651569969742088,40.01274152332987,11.233466623682185,0.3785283540554,92.62295922520258,6.841999342414338,0.05402969902958046,0.01557439722916732,0.00900494983826341,0.40567138790952495
Gujarat,Bharuch,21.75787276237761,72.67326346710801,1551019,72.0,51.94694584656926,48.05305415343074,55.71495766698025,44.28504233301975,54.43505205287621,28.531114061143033,16.42326754217711,40.43303144577855,16.349058264276582,0.5739452579239842,76.607959025647,22.147439844386174,0.6121137136295558,0.11173299617864127,0.028497394293686928,0.31031212383600715
Gujarat,Bhavnagar,21.70219390341736,72.16272632761141,2880365,66.0,51.73653339073346,48.26346660926654,57.61653830563437,42.38346169436563,59.33060566976754,25.005198993877514,15.453631744587925,39.947437217158246,11.596620567185061,0.6247819286791778,91.39723611417303,7.390139791311171,0.1200195114160879,0.04895212933083133,0.01544943088809925,0.9364785365743579
Gujarat,Gandhinagar,23.19367979002625,72.67221679790026,1391753,74.0,52.0109530929698,47.9890469070302,56.54433698789124,43.45566301210876,55.277696545292166,28.156001819288335,16.158470648168173,38.439004622228225,9.294465325384603,0.6179257382595906,94.81466898221164,4.115169861318782,0.23258437380770872,0.14262588260991715,0.03571035952500192,0.4602109713433346
Gujarat,Jamnagar,22.410600414263328,69.62062005768233,2160119,65.0,51.580121280355385,48.41987871964461,56.93667322098853,43.06332677901147,56.50605360167658,26.679965316725607,16.594224670029753,39.23117198635816,6.814115333460795,0.5258506591535004,83.81218812482089,14.851265138633565,0.20332213178996159,0.08670818598419809,0.05027500799724459,0.8729148718195618
Gujarat,Kachchh,23.48057203301311,68.82192301497916,2092371,60.0,52.415991236735735,47.58400876326426,59.029608270736134,40.97039172926387,61.10790103667084,25.04584512020096,13.672814238010373,37.09800986536326,8.792465580912753,0.5162564382702686,76.89463293077566,21.14132723116503,0.2959322223448901,0.30362684246722976,0.023418409067990333,1.2097281027121864
Gujarat,Kheda,22.88765312500002,73.018803515625,2299885,72.0,51.55592562236807,48.44407437763192,56.76759365948237,43.23240634051762,54.81404505007858,27.315322287853522,16.89849709876798,40.609987021090184,15.646086652158694,0.5415488165712633,86.99930648706349,11.499792380923395,1.1578405007206882,0.06100305015250763,0.013044130467392934,0.15126843298686674
Gujarat,Mahesana,23.529355452865065,72.45545194085031,2035064,74.0,51.9158119842914,48.0841880157086,56.40048048607622,43.59951951392378,55.00814716392212,27.243958912348702,17.570847894709946,39.90360991103965,11.939133118172204,0.5052420955802864,92.66204895767406,6.704015205418601,0.09601663633183036,0.05316786105989787,0.007174221547823557,0.34824457609195586
Gujarat,Narmada,21.70666386292833,73.68403208722742,590297,63.0,51.00584959774487,48.99415040225514,57.18239652639765,42.81760347360235,57.061106527730956,26.75094062819225,15.833724379422561,49.94011489131742,31.853456819194403,0.4394398074189772,94.84174915339227,3.82858120573203,0.7475897726059932,0.024902718462062316,0.01355249984329922,0.06318853051938261
Gujarat,Navsari,20.866973318871995,72.86184869848157,1329672,75.0,51.00242766637185,48.99757233362814,53.8443112099003,46.155688790099695,50.61503889681064,29.356788741885214,19.47525404761475,44.50977383896179,15.538268084159101,0.5394563471292169,92.13452640952055,5.916421493420934,0.4311589625110554,0.1849328255389299,0.04519911677466322,1.006714437846326
Gujarat,Panch Mahals,22.80435606837605,73.61984598290586,2390776,60.0,51.320617238921585,48.67938276107841,59.55379110983097,40.44620889016904,59.472698404200145,25.09331698159928,15.199709215752542,45.9058899704531,15.72870063945765,0.4505231774118529,92.897619852299,6.630190364969366,0.11975191318634619,0.027689754288983997,0.014095841684875538,0.21900838890803656
Gujarat,Patan,23.80634198473284,71.75162977099237,1343734,62.0,51.676671126874815,48.323328873125185,59.03130754624883,40.96869245375117,58.520287497376714,25.405400175927678,15.885956595576209,41.29016605965169,16.89917796230504,0.47568938495267665,88.91231449081441,10.626880022385384,0.06816825353827469,0.025079368386898,0.0049116863903123685,0.26805900572583563
Gujarat,Porbandar,21.55092351651571,69.71896987722886,585449,67.0,51.278420494355615,48.721579505644385,56.29499235415746,43.70500764584254,53.78538523423902,27.974597274912078,18.04392867696418,39.485762209859445,8.36349536851203,0.40498830811906755,93.90211615358469,5.733206479129693,0.08540453566408004,0.0423606496893837,0.015543625490862568,0.08796667173400245
Gujarat,Rajkot,22.40603377715488,70.83679439383323,3804558,72.0,51.89683006541102,48.10316993458898,55.56124351205993,44.43875648794006,54.686194822105485,27.67393741927446,17.3364685201277,38.875737996371726,5.632323124000212,0.6250397549465667,89.29831007964657,9.498816945358698,0.14398518829256907,0.050413214885934185,0.030752586765663715,0.882914651320863
Gujarat,Sabar Kantha,23.71803594548552,73.13638790459964,2428589,65.0,51.232670493031144,48.767329506968856,58.18744639692311,41.81255360307689,57.363802603075285,25.980641434182566,16.507733502869364,44.6711238501039,13.747365239651502,0.44919086761901666,93.08120888301808,6.11725573985553,0.26249810074903573,0.025282170017240462,0.006917597007974589,0.45746727832498624
Gujarat,Surat,21.25761372772093,72.93488716344339,6081322,75.0,55.945467120471505,44.054532879528495,58.788601328692906,41.2113986713071,58.59651898057692,28.624466851122172,11.895686497113621,41.98991600839423,5.356384680830911,0.6912970567912701,86.49752471584303,10.865597973598504,0.3461747297709281,0.09377895135301173,0.21215781700097444,1.855435380662297
Gujarat,Surendranagar,22.82672007299272,71.48358740875906,1756268,62.0,51.80968963734465,48.19031036265536,58.81544513389404,41.18455486610596,58.84267093632635,25.01622759168874,15.976035548105413,41.195307322117124,15.422532324223864,0.5419446234857095,92.25710426882458,6.245117487763826,0.0807963249344633,0.02915272612152587,0.01776494248030483,1.3091396073947712
Gujarat,The Dangs,20.801633877551023,73.6883518367347,228291,62.0,49.85785685813282,50.14214314186718,54.845071221837586,45.154928778162414,63.99507645943117,22.699536994450064,13.15294952494842,51.80099084063761,17.734382870984838,0.5133798529070353,89.16032607505333,1.5738684398421312,8.773451428221,0.030224581783775968,0.01401719734899755,0.017083459269090766
Gujarat,Vadodara,22.26133739279589,73.49433010291594,4165626,69.0,51.702577235690384,48.297422764309616,55.79130200340122,44.20869799659878,53.13664740905688,28.56811917344476,17.613439132557748,40.65350561956354,13.692083734833613,0.42442600463891866,89.1568518153094,9.232201834730242,0.5716547764969779,0.224216000188207,0.04966840518087798,0.6637657821417478
Gujarat,Valsad,20.44238231644259,72.9148584798345,1705678,69.0,52.01579665095053,47.98420334904947,55.996589949062795,44.003410050937205,55.37575087443234,28.48568135369044,15.237694336211172,43.57475443782472,10.730337144525521,0.693741726164024,92.11275516246326,5.512998350216161,1.152679462360422,0.09315943571998936,0.05352710183281956,0.8095900867572895
Haryana,Ambala,30.3503672316384,76.94970310734456,1128350,72.0,53.060043426241855,46.93995657375814,56.3904526145289,43.6095473854711,54.75774360792307,27.307661629813445,17.874329773563165,32.98081269109762,5.077591172951655,1.3961093632294945,84.64536712899367,1.9624230070456863,0.32835556343333183,12.248149953471883,0.03376611866885275,0.42938804448974166
Haryana,Bhiwani,28.728868064516128,76.02110225806452,1634445,65.0,53.02546124219536,46.97453875780464,60.115471865299654,39.88452813470035,59.039001006457845,24.825552404638884,15.994909587046369,38.11728140133195,6.35004542826464,0.9088712070458168,98.56746479691884,0.9492518867260753,0.05341262630434184,0.14690001804894018,0.015540443392099458,0.06216177356839783
Haryana,Faridabad,28.14873109756098,77.32718536585368,1809733,70.0,53.38411798867567,46.615882011324324,57.7447536376272,42.25524636237281,60.53942763932581,26.59607798498452,12.76591629815006,32.006323584749794,1.618360277455293,1.784020073679377,87.77024014039641,8.933914560877213,0.538366709343312,1.9103370497194891,0.035364332749637656,0.26981880752575105
Haryana,Fatehabad,29.57298318584072,75.54608716814157,942011,59.0,52.585373206894616,47.41462679310539,58.730975755858374,41.269024244141626,58.995595592832785,25.159897283577372,15.654700422818843,39.18032804287848,10.402957077995904,0.696170214572866,82.72122087746322,0.8874630975646782,0.10573124942277745,16.026245978019364,0.01815265426836842,0.12441468305571804
Haryana,Gurgaon,28.043894789579163,77.01935130260523,1514432,73.0,53.92714892448126,46.07285107551874,57.47968708937681,42.52031291062319,57.8125,28.26808995055572,13.886856590457677,35.96833664370536,1.7892516798377212,1.2036195748637113,93.02504173181761,4.677793390525293,0.6421549465410135,0.9968753961881418,0.06233360098043359,0.49199964078941805
Haryana,Hisar,29.23628731117825,75.84324682779452,1743931,64.0,53.41736570999656,46.58263429000344,60.14478902209527,39.85521097790473,58.36412105754184,26.178558670039127,15.201805576023364,39.65873649817567,8.269421209898786,0.9230296382138972,97.54176053983787,1.2414481994987185,0.11152964194110893,0.7035828825796434,0.019152133886031042,0.20757701996237235
Haryana,Jhajjar,28.59651868131869,76.61137142857145,958405,71.0,53.70036675518178,46.29963324481821,59.08672057459721,40.91327942540279,57.38440429672216,25.573218002827613,16.940228817671027,34.070565157736034,4.67912834344562,0.9655625753204543,98.6736296242194,0.8604921718897544,0.0765855770785837,0.10872230424507384,0.010955702443121645,0.06729931500774725
Haryana,Jind,29.45149821958457,76.29598575667653,1334152,62.0,53.44263622136008,46.55736377863992,60.28750249172028,39.71249750827972,58.770290041914265,25.162350316905417,16.00102537042256,39.23256120741864,7.650627514705971,0.6831305578374878,95.69142046783276,1.7251407635711673,0.06663408667078415,2.181385629223657,0.012892084260264199,0.19443061959956587
Haryana,Kaithal,29.96068539094649,76.37698930041155,1074304,60.0,53.15097030263315,46.84902969736685,59.669713191519634,40.330286808480366,58.66067705230549,24.742810228762064,16.412486595972833,34.803835785773856,7.972696741332062,0.879639282735613,90.71175384248778,0.7662635529608007,0.16466475038722744,8.150207017752889,0.02466713332539021,0.0326723162158942
Haryana,Karnal,29.703200647249204,76.87488025889972,1505324,65.0,52.99271120370099,47.007288796299,57.72070514400115,42.27929485599884,58.78946990813938,25.27090513404423,15.590264952927077,34.2824534784538,8.883336743451908,1.0171232239703878,89.08394471887779,2.102537393943098,0.13611687583536833,8.384042239411581,0.03534122886501511,0.10070921608902801
Haryana,Kurukshetra,30.05652659846548,76.78774680306903,964655,67.0,52.96981822516859,47.03018177483141,57.32447251709324,42.67552748290676,57.226054910823045,26.002042180883322,16.60863210163219,34.9119633444081,8.903701323271013,0.6972440924475589,83.46766460548072,1.6555141475449773,0.20141916021790174,14.55390787379944,0.022184096905111153,0.03887400158605927
Haryana,Mahendragarh,28.1352161458333,76.14018072916659,922088,68.0,52.77858512419639,47.22141487580361,60.36286899746928,39.63713100253072,57.47824502650506,24.877452043622732,17.48835252166821,36.71927191330979,4.155785564935234,0.8284458750140984,99.04163160132222,0.6138242770755069,0.03264330519429816,0.1883768143604515,0.008133713918845056,0.06984149018314956
Haryana,Panchkula,30.700897142857134,76.97173238095236,561293,72.0,53.3908315264933,46.609168473506706,56.71152033711802,43.28847966288198,55.06535802156806,27.984671107603337,16.6768514839843,37.67711337928675,2.2852592139934047,1.7584398879016843,87.42350252007418,4.178031794446039,0.46018746002533434,7.295833014129875,0.17958535025378902,0.2896882733260525
Haryana,Panipat,29.34352134146342,76.92895914634147,1205437,65.0,53.661618151757416,46.33838184824259,59.00541444878521,40.99458555121478,61.31178983223512,24.784704634087056,13.874138590403314,34.20485682785579,5.173061719525782,1.312718955864139,89.9205848169585,7.1859416958331295,0.18756683260925291,2.0792459498090734,0.023974707927498493,0.3855033485781505
Haryana,Rewari,28.19164714828897,76.55956007604564,900332,71.0,52.68445417912503,47.315545820874966,58.94572075855605,41.05427924144395,57.61730117334495,25.624325248908182,16.722386852849837,37.51138468920354,3.133843959783724,1.086488095502548,98.7561255181422,0.6345437016567222,0.07786016713834452,0.2003705299822732,0.022436167991363186,0.16938196132093494
Haryana,Rohtak,28.892517647058817,76.53123235294117,1061204,70.0,53.569247760091365,46.430752239908635,58.324705517254294,41.675294482745706,57.08054247816631,25.381924681776546,17.497578222471834,32.60136599560499,3.4458973015555916,0.8029558878406037,98.36817426244153,0.7712937380560194,0.06897825488784437,0.3690148171322385,0.018846517728919227,0.3289659669582851
Haryana,Sirsa,29.63583446327684,74.90970480225988,1295189,60.0,52.70134320164856,47.29865679835144,58.36885311860948,41.63114688139053,57.924210289000285,25.81430200534439,16.073715882392452,38.759053697954506,11.352937679365715,0.922799684061554,72.5959686192517,0.7353366960343239,0.16877845627163293,26.170852284878887,0.02856725929574757,0.17418307289515275
Himachal Pradesh,Chamba,32.66741814595661,76.39354063116366,519080,62.0,50.34291438699236,49.65708561300763,57.4551787600126,42.5448212399874,59.05737073283501,25.161054172767205,15.713570162595362,56.64541111196733,1.7710179548431841,0.870964013254219,92.42929798874933,6.252408106650227,0.300339061416352,0.5288202203899206,0.33520844571164365,0.010980966325036604
Himachal Pradesh,Hamirpur,31.67668481012659,76.49767088607594,454768,79.0,47.73203039791718,52.26796960208282,50.42154089323664,49.57845910676337,49.26555958202864,27.25367659993667,23.449539105653873,53.1987738803082,1.9403300144249376,0.7359796643563311,98.8222566231573,0.8160204763747668,0.05343383879252717,0.12995637335960314,0.0208897723674489,0.06442845582802659
Himachal Pradesh,Hamirpur,31.67668481012659,76.49767088607594,1104285,59.0,53.748534119362304,46.251465880637696,62.47139518046101,37.528604819538984,59.83727026990315,23.577971266475593,16.40056688264352,40.17576984202448,16.431356035805976,1.7998976713439012,91.46316394771277,8.264985941129328,0.073712854924227,0.017749041234826155,0.006701168629475181,0.003712809646060573
Uttar Pradesh,Hamirpur,25.73815838150289,79.82619479768789,454768,79.0,47.73203039791718,52.26796960208282,50.42154089323664,49.57845910676337,49.26555958202864,27.25367659993667,23.449539105653873,53.1987738803082,1.9403300144249376,0.7359796643563311,98.8222566231573,0.8160204763747668,0.05343383879252717,0.12995637335960314,0.0208897723674489,0.06442845582802659
Uttar Pradesh,Hamirpur,25.73815838150289,79.82619479768789,1104285,59.0,53.748534119362304,46.251465880637696,62.47139518046101,37.528604819538984,59.83727026990315,23.577971266475593,16.40056688264352,40.17576984202448,16.431356035805976,1.7998976713439012,91.46316394771277,8.264985941129328,0.073712854924227,0.017749041234826155,0.006701168629475181,0.003712809646060573
Himachal Pradesh,Kangra,32.14093603238864,76.41205910931173,1510075,76.0,49.70554442660133,50.29445557339868,52.61339186563021,47.386608134369794,50.76443223018724,27.75835637302783,21.152591758687482,44.71102428687317,3.632203698491797,1.0371670281277419,96.75943247851929,1.31099448702879,0.20018873234773107,0.5912951343476317,0.9609456483949473,0.012847044020992337
Himachal Pradesh,Kinnaur,31.60667184065933,78.51613736263741,84121,72.0,54.97913719523068,45.020862804769315,60.457338671147795,39.542661328852205,50.35603475945365,31.61992843641897,17.920614353134177,66.89530557173595,3.0158937720664283,1.122193031466578,76.95105859416792,0.5325661844248166,0.5765504451920448,0.2960021873254003,21.49998216854293,0.03447415033107072
Himachal Pradesh,Kullu,31.90911922077925,77.40922649350647,437903,70.0,51.48446117062454,48.51553882937545,56.73249434462675,43.267505655373256,55.88612089892053,27.519793196210117,16.50639525191652,61.44831161238905,2.8252832248237625,0.6181734311023217,94.9226198496014,0.6791458382335814,0.35807016622402676,0.31879206125557485,3.511508256394681,0.02146594108740977
Himachal Pradesh,Mandi,31.635805940594054,76.96556930693067,999777,72.0,49.8176093268799,50.1823906731201,54.39317883182936,45.60682116817065,52.440194163298415,27.938330247645226,19.470441908545606,57.27987341177082,1.5825529092987738,0.7135591236845816,98.16309036915231,0.946211005054127,0.08761953915723207,0.4081910265989316,0.2628586174716962,0.004300959113882396
Himachal Pradesh,Shimla,31.155725451807253,77.62573042168668,814010,75.0,52.21545189862532,47.784548101374675,55.96188312260668,44.03811687739332,52.29923465313694,29.72395916512082,17.883932629820272,52.93866168720286,3.2080686969447547,0.9787349049765973,97.22841242736577,1.4508421272465941,0.2487684426481247,0.4971683394552892,0.4007321777373742,0.02272699352587806
Himachal Pradesh,Sirmaur,30.682764453961443,77.43184689507493,529855,68.0,52.14426588406263,47.85573411593738,56.69925133394918,43.30074866605082,58.552622887393724,25.825744779232053,15.564824338734182,52.86031083975805,2.025082333846052,1.0027271612044804,89.99254513027148,6.268696152721027,0.10889771730001604,2.925517358522615,0.49919317549140807,0.044540487491860986
Himachal Pradesh,Solan,31.03864311926604,76.94442140672783,580320,74.0,53.20409429280397,46.79590570719603,57.01925903802808,42.98074096197191,55.40615522470361,28.8061759029501,15.647918389853874,51.4779776674938,1.771953405017921,0.8562517231872071,94.53043148607665,2.529294182519989,0.250206782464847,2.399710504549214,0.09891094568513924,0.10184036393713813
Himachal Pradesh,Una,31.58330388349513,76.18353932038836,521173,77.0,50.59586739911699,49.40413260088301,53.35826776578312,46.64173223421688,52.42462675541519,27.313579176204446,20.21555222546064,41.31948508460722,3.7615148904490447,0.6575551688211017,92.1264148372997,2.7390137248092286,0.07483119808585632,4.99047341285907,0.01074499254566142,0.013431240682076776
Jammu and Kashmir,Doda,33.359614675767915,76.07163720136518,409936,53.0,52.11569610866087,47.88430389133914,63.27282354176271,36.72717645823729,64.2968658522306,22.732572889426642,12.866398657351391,37.057491901174814,2.9758303735217204,0.47129307989539837,45.768363842160724,53.81669333749658,0.11513992428086334,0.10294289840365325,0.005122750868428242,0.005366691385972444
Jammu and Kashmir,Jammu,32.713199095022645,74.8477520361991,1529958,74.0,53.1923752155288,46.80762478447121,56.4502895434579,43.5497104565421,53.38885119722241,28.490651377358073,18.01258596641215,33.24418055920489,2.4100661586788656,0.6921105023798039,84.26636548192826,7.025617696694941,0.7911328284828734,7.468963200297002,0.03071979753692585,0.12987284618270567
Jammu and Kashmir,Kargil,33.565994894894914,76.63675315315312,140802,61.0,55.24424368972032,44.75575631027968,65.28711906860244,34.712880931397564,62.16673058621326,25.256033294981606,12.420278121049417,36.84109600715899,2.672547264953623,0.8678853993551228,7.344355904035455,76.87319782389454,0.4289711793866564,0.8316643229499581,14.293831053536172,0.019886081163619836
Jammu and Kashmir,Kathua,32.51781678321678,75.58901398601404,616435,63.0,52.902414690924424,47.097585309075576,58.70931439553551,41.29068560446449,58.05380940407342,25.97565031187392,15.84660183149886,32.51453924582478,3.498503491852344,0.641105712686658,87.61069699157251,10.420238954634309,0.2965438367386667,1.5493928800279024,0.0038933545304857767,0.002595569686990518
Jammu and Kashmir,Pulwama,33.88414418604652,75.00921860465118,560440,52.0,52.29177075155235,47.70822924844765,60.663768293429676,39.336231706570324,61.130718721004925,24.450788666048105,14.294304475055315,33.62001284704875,6.0809364071087,1.8940475340803655,2.4694882592248946,95.4890800085647,0.19788023695667692,1.6843908357718935,0.006245093141103418,0.001070587395617729
Jammu and Kashmir,Punch,33.791241290322574,74.29593161290322,476835,55.0,52.827288265332875,47.172711734667125,62.4065809784353,37.5934190215647,63.95902146444787,23.03060807197458,12.862730294546331,33.84671846655552,6.6234651399331,0.8241844663248293,6.837585328258203,90.44617110740613,0.20090807092600166,2.3463042771608627,0.017406440382941687,0.0020971614919206853
Jammu and Kashmir,Srinagar,34.27312898550724,75.11021159420288,1236829,61.0,52.64462589412118,47.35537410587882,57.67502377822663,42.324976221773376,56.04962367473596,28.424382028558515,15.388546031828168,32.92193181110727,0.8415067887315062,1.6247193427709083,3.439440698754638,95.19036180425911,0.22201937373719405,0.9853423553296374,0.023042797347086783,0.0059830421181909545
Jammu and Kashmir,Udhampur,33.04770670731707,75.15286951219511,554985,58.0,53.476039892970086,46.52396010702992,61.2813863020158,38.7186136979842,61.10885879798553,25.367352270782096,13.470093786318548,43.90605151490581,2.0533888303287475,0.47586871717253615,88.11841761489049,10.769840626323234,0.3535230681910322,0.6158725010585872,0.01909961530491815,0.010270547852644666
Jharkhand,Bokaro,23.6814965034965,85.98398374125864,2062330,62.0,52.01917248936883,47.98082751063118,59.60550285821974,40.39449714178026,61.15597406816562,24.747494338927332,13.679430547002664,33.232702816717016,6.129280958915402,1.0508017630544093,79.35005551972769,11.707680148181911,0.6657518437883365,0.2023924396192656,0.09164391731682127,0.09915968831370343
Jharkhand,Chatra,24.11619945750453,84.93295804701627,1042886,49.0,51.197829868269395,48.8021701317306,59.58150103615058,40.41849896384942,66.41665531994867,21.37261407287086,12.14725291163176,38.133602330456064,18.076088853431727,1.3625650358716102,86.60380904528395,11.191060192580972,0.6295031288175313,0.08514832877227232,0.003356071516925148,0.012369520733809833
Jharkhand,Deoghar,24.33070100755672,86.75697632241814,1492073,53.0,51.94263283364822,48.057367166351774,61.728234816732154,38.271765183267846,63.33208897956065,22.680726747283813,13.773722867446834,36.95978682008186,14.053802997574516,2.6380076578022655,78.08867260516074,20.282251605652,0.4039346600333898,0.009583981480798863,0.01259991970902228,0.018899879563533423
Jharkhand,Dhanbad,23.854509090909097,86.40372924901185,2684487,64.0,52.37335848525249,47.62664151474751,58.93320419648311,41.06679580351689,60.89934501452233,24.171322118527673,13.277955899954069,31.458673482121537,3.855038225180454,0.9643928244018317,80.07041941346708,16.08359437017203,0.4188137249314301,0.3623411102381945,0.012330102548457116,0.047234350548168054
Jharkhand,Dumka,24.275006125574265,87.27662450229711,1321442,51.0,50.589734547562436,49.410265452437564,60.42081530735014,39.57918469264986,60.48869341219668,24.535772285124885,14.844692389071938,47.280092505005896,22.93585340862482,1.7485443931704912,79.0595425300543,8.086998899686858,6.538614634618849,0.017707928157270618,0.020205200076885706,0.012259334878110428
Jharkhand,Garhwa,24.082114689265527,83.68664265536722,1322784,49.0,51.676993371555746,48.32300662844425,62.0008998035123,37.9991001964877,65.08008866148971,21.47259114110845,13.426152720323199,43.199116409028235,24.84706497810678,1.0951901444226722,83.49624730870649,14.717444420253042,1.29786873745071,0.009298570288119604,0.02804690712920628,0.0015119626484747322
Jharkhand,Giridih,24.30578509874329,86.08710915619386,2445474,51.0,51.44597734426946,48.55402265573054,62.52506033227627,37.47493966772373,65.31531310494407,21.827588434798326,12.797805251660824,42.375302293134176,14.827800254674553,1.3307849521197117,75.90356716121292,20.797031577518304,0.5988614068274698,0.038315680313918694,0.02657971419855619,0.06146047760066147
Jharkhand,Godda,24.8189,87.2941735483871,1313551,46.0,51.610253427541075,48.38974657245893,62.233279681862776,37.76672031813723,62.45414148365766,23.49653724902954,13.971212385358466,42.03803278289156,23.43015231231981,1.4250683833364672,71.34294747596401,22.015285283936446,2.877315003376344,0.007384562913811493,0.009744577865648155,0.008754894176168265
Jharkhand,Gumla,23.078532948929148,84.55056787479396,1025213,55.0,50.173963849463476,49.826036150536524,57.49213892660616,42.50786107339384,62.77515013953197,22.03161684449963,15.1628978563479,47.55187458606163,9.550990867263682,1.2456923585635375,30.19499362571485,5.016420977884596,19.747018424463988,0.02155649606472021,0.05179411497903362,0.002243436242029705
Jharkhand,Jamtara,23.97873318077801,86.95325080091534,791042,54.0,51.1768022431173,48.82319775688269,60.58004466212539,39.419955337874605,60.79260014006842,24.004920092738438,14.766598992215332,41.291233588102784,17.150416792028743,1.459720217131328,69.59933859390526,20.783472938225785,0.5586302623628076,0.06573607975303461,0.01491703348241939,0.09898336624351173
Jharkhand,Latehar,23.72511185840708,84.48298743362837,726978,48.0,50.849681833563054,49.150318166436946,59.799476448748436,40.20052355125156,66.58853500381029,21.007513294762703,12.362134755109508,43.10708164483657,19.633193851808446,1.2662006278044178,65.07060736363411,9.602491409643758,6.554943891011833,0.016506689335853354,0.01760713529157691,0.002200891911447114
Jharkhand,Lohardaga,23.488796043165483,84.6605169064748,461790,56.0,50.37549535503151,49.62450464496849,57.59105453453315,42.40894546546685,64.71426405942094,21.728491305571794,13.478854024556616,47.92914528248771,17.505792676324734,0.9634249334112909,24.33530392602698,20.574720110872907,3.6315208211524714,0.011043981030338466,0.007146105372571948,0.003248229714805431
Jharkhand,Pakur,24.57260428082189,87.69691969178076,900422,39.0,50.272094640068765,49.727905359931235,58.65688433211196,41.34311566788804,65.30004819962195,22.969896337495086,11.59656250069412,44.93270932962544,16.66196516744371,2.162430504807746,45.548309570401436,35.86795969001202,8.425493824006965,0.0395370170875434,0.031429707403861744,0.02465510616133324
Jharkhand,Palamu,24.196925968109337,84.20310842824594,1939869,53.0,51.87473999532958,48.125260004670416,60.68011435119168,39.319885648808324,64.1575281629842,21.94313121143747,13.835315683687918,36.7640804611033,19.63926430083681,1.026409515281702,86.76714767852881,12.28407691447206,0.3177534153079409,0.0378376065600306,0.009691376067146802,0.014640163846115382
Jharkhand,Ranchi,23.184235061391547,85.31781937244203,2914253,66.0,51.29743368197614,48.70256631802386,56.77646038338775,43.22353961661225,59.78523484405781,24.909916880929693,14.0401674116832,39.21646473384431,9.174220632182587,1.3194461839792222,55.32254749330274,14.094829790001073,6.656045305606617,0.1655998981557195,0.03198075115647132,0.09378046449639067
Jharkhand,Sahibganj,24.93667989690721,87.68264097938142,1150567,42.0,51.22613459277034,48.77386540722966,59.45065109474551,40.54934890525449,64.75303046237202,22.758257450457037,11.97035896214649,42.60525462663191,17.982612051275588,3.752845336255951,54.585608660773346,34.61276049113176,7.231912613520117,0.017208906565197853,0.021293849032694313,0.010864208690150161
Jharkhand,Simdega,22.608760391198054,84.59193691931536,599578,57.0,50.08672766512448,49.91327233487553,55.895342709828434,44.104657290171566,59.68514521880389,23.94350693320969,16.31430772976994,48.14135942279403,15.049251306752415,1.3361063948310312,33.6109730510459,2.5189383199516993,51.13613241313056,0.008505982541053874,0.12558833045908957,0.01901337273882631
Karnataka,Bagalkot,16.15860676328503,75.64526070853468,1889752,59.0,50.27702047676097,49.72297952323903,57.605630260855825,42.394369739144175,59.44922931686274,24.643762779454658,15.863139713570881,43.29038942676076,16.046708774484696,2.370522692924786,86.4784902992562,11.641262980539246,0.18166404903923902,0.023442229456563612,0.02180180256456932,1.3334024782087808
Karnataka,Bangalore Rural,12.936827087794448,77.47369314775169,990923,70.0,51.38360901906607,48.616390980933936,55.94360209597401,44.05639790402599,54.067268597055474,28.070092227145803,17.76959461027749,46.41036690035452,8.487844161453513,1.9635228973391472,89.85854602224391,9.309704184886213,0.5417171667223387,0.039256329704729837,0.02744915598891135,0.10545723532504545
Karnataka,Belgaum,16.16107219152853,74.72329042357275,4779661,64.0,50.695289896082585,49.30471010391741,56.53767719342392,43.462322806576076,55.848061190950574,26.175831298495854,17.933133751535934,44.054756184591334,13.589185509181508,1.262474472561966,84.4899042003188,11.055428407997974,0.385341136118231,0.04261808525751094,0.022721276676316585,3.7305993040092176
Karnataka,Bellary,15.074377548209377,76.47228471074374,2452595,58.0,50.43449896945887,49.56550103054112,57.21918851789612,42.78081148210388,60.63018965626205,25.16828094324583,14.144406230951297,45.53870492274509,16.557646085065002,0.9309323390123522,85.77172341948018,13.08140969055225,0.5713947879694772,0.04195556135440218,0.011579571841253855,0.3279791404614296
Karnataka,Bidar,17.950361730769224,77.19459961538459,1703300,61.0,51.116362355427704,48.8836376445723,57.27567511578414,42.72432488421586,59.77778430106264,23.31474197146715,16.865555098925615,41.24980919391769,16.444020430928198,1.0623495567427934,75.71825280338167,19.678506428697233,2.0805495215170553,0.06722245053719252,1.787882346034169,0.03992250337579992
Karnataka,Bijapur,16.84015316666667,75.95909166666665,255230,34.0,50.41061003800493,49.58938996199506,62.21424544691034,37.78575455308966,65.56752732829213,24.997845080907418,9.374681659679505,52.70736198722721,19.534929279473417,0.5481330564588802,96.05101281197351,0.6335462132194492,1.0613956039650512,0.026642636053755435,0.6460839243035693,0.005877052070681346
Karnataka,Bijapur,16.84015316666667,75.95909166666665,2177331,57.0,51.02678462760141,48.97321537239859,58.52637414401395,41.47362585598605,59.48907171210992,24.207848967382542,16.237724075944357,42.60822079876693,16.14821081406548,1.1656013715875078,82.06515224373327,16.974359892914766,0.1117423120324838,0.025627706582049305,0.017176993300513334,0.39796429665494126
Karnataka,Chikmagalur,13.425288289676422,75.67626502311249,1137961,72.0,49.792743336546685,50.207256663453315,53.55406338402508,46.44593661597492,49.64968043720303,29.999270625267478,20.287514246973316,49.718224086765716,11.125161582866196,0.7797279520124152,88.2765753835149,8.896174824972034,2.284788318756091,0.015993518231292636,0.00957853564401592,0.4138981915900457
Karnataka,Chitradurga,14.29102220394736,76.57821957236843,1659456,66.0,50.66979781325929,49.33020218674071,55.83892469321091,44.16107530678909,53.70615430598943,27.723362354892206,18.464605268232482,51.61854246210807,17.736957171506806,1.5809397778549112,91.62960632882101,7.758626923521924,0.19132776042269273,0.019403949246017974,0.005061899803309036,0.22766496972501832
Karnataka,Davanagere,14.330414586709884,75.91723841166937,1945497,67.0,50.701697304082195,49.298302695917805,55.07183578644902,44.92816421355098,54.92262388479653,27.68192395053809,17.279543479121273,44.986293990687216,15.208093356093585,1.6159366989514763,85.24634065228577,13.662575681175557,0.27859205128560977,0.0157800294731886,0.008429722585025832,0.3298385965128705
Karnataka,Dharwad,15.343831376975173,75.13831264108359,1847023,70.0,50.74143635460955,49.258563645390446,54.682007031000325,45.31799296899968,55.112199469091614,27.378543743093616,17.464698598772184,42.4917827227923,11.241982368384152,0.8913262043840277,75.25731948113261,20.94364823827316,1.5563964281982412,0.08045378969292748,0.038710941877821765,1.572097369659176
Karnataka,Gadag,15.507128256880746,75.64861302752298,1064570,66.0,50.45671022102821,49.5432897789718,56.72537087050846,43.274629129491544,56.509013028734614,26.214246127544456,17.22845843861841,46.56546774754126,18.816047793944975,1.454577904693914,85.26916971171458,13.495120095437594,0.32238368543167667,0.021698901904055157,0.007420836581906309,0.5629502991818293
Karnataka,Gulbarga,17.070459515951594,76.87503850385033,2566326,56.0,50.72445979193601,49.27554020806398,58.034017856642436,41.965982143357564,61.20496772428756,23.561503877527638,15.155323213029053,42.357362236909886,16.18138147686615,1.0088741648566861,78.36159552605554,19.99453693724024,0.3251340632483948,0.03218609015378405,0.3736469957441104,0.18957061573627046
Karnataka,Hassan,12.945098749999998,76.11049549999997,1776421,69.0,49.7442329267668,50.2557670732332,54.58744947994541,45.41255052005459,49.388067355655,29.387121633891965,21.161537721069497,50.86519468076543,9.339565339522556,0.9077803065827301,91.80335066968922,6.755774672783085,0.8787894311089544,0.016268666042565362,0.03507051537895578,0.32762503933470727
Karnataka,Haveri,14.737582809224318,75.3961230607966,1597668,68.0,51.27022635491228,48.72977364508772,55.62641244174038,44.37358755825962,56.610822774193394,26.669746155020942,16.685944764494252,45.69572652140495,19.482333000348007,1.2654068304553887,80.23431651632254,18.64761640090432,0.15059449147131945,0.02622572399271939,0.004256203416479519,0.6155221234949939
Karnataka,Kodagu,12.39684468085106,75.79336595744688,554519,74.0,49.521837845051294,50.478162154948706,52.14676525938717,47.85323474061282,49.938415094884036,29.4597660314615,20.543750529738386,50.30269476789795,2.7326385570196874,0.2793411948012602,80.9685511226847,15.738685238918777,3.0891637617466667,0.0250667695786799,0.02272239544542207,0.04508411794726601
Karnataka,Kolar,13.312799881235172,78.01376947743476,1536401,66.0,50.53342193867356,49.46657806132644,55.51067240427506,44.48932759572494,54.77079226061426,27.29625924481955,17.849506736848,46.724260137815584,13.097687387602585,1.573677705234506,84.96681530407751,13.009168830272827,1.7392594771807621,0.016467055150315577,0.009763076176076427,0.16232741322089742
Karnataka,Koppal,15.651253271028034,76.1617048598131,1389920,58.0,50.35728675031657,49.64271324968343,57.940142259465944,42.05985774053406,61.54526879244848,23.770648670427075,14.604005985956025,47.10817888799355,19.642569356509725,1.352164153332566,87.63266950615862,11.63879935535858,0.2936140209508461,0.021296189708760217,0.00611545988258317,0.20850120870265915
Karnataka,Mandya,12.574901806239744,76.81570098522172,1805769,64.0,50.121859440493225,49.878140559506775,55.553303660508554,44.446696339491446,49.96801916524207,29.197311505513717,20.772313623724852,48.256892216003266,11.970467983446389,0.9876124797800825,94.84574162032906,4.308469134202658,0.47104585359478424,0.017831738168060256,0.01655804258462738,0.1997486943235818
Karnataka,Mysore,12.248100259403367,76.52881802853437,3001127,65.0,50.36774518372597,49.63225481627402,54.213476847180175,45.786523152819825,52.65075420000554,28.829836258179007,18.449902320028443,43.79248195761126,10.36284035963823,0.9383808149405207,87.69988740896336,9.68132971380418,1.311540631236199,0.0418176238459752,0.5395972912842409,0.48045284321523213
Karnataka,Raichur,16.050795353982295,76.87368606194688,1928812,51.0,50.00544376538512,49.99455623461488,58.91317239063494,41.08682760936506,62.04181641341925,24.1170730999185,13.78102168588748,46.83779445586195,19.884052981835453,0.9899876193221527,84.71857288320479,14.103085215147976,0.5388809277420505,0.027892816925651646,0.11742979616468582,0.21546941848142792
Karnataka,Shimoga,14.063845885634592,75.17882078103197,1752753,72.0,50.059249648980774,49.940750351019226,53.438594602126976,46.56140539787303,52.0980423368267,29.285187359542387,18.573181731824164,44.53553923456414,14.061536337407496,0.8607601869744339,84.4057320112988,13.388309704790121,1.5131053833597774,0.022821241783639794,0.0068463725350919385,0.5268283665753246
Karnataka,Tumkur,13.592467760074973,77.02297966260545,2678980,68.0,50.41448611038529,49.5855138896147,55.47750043978381,44.5224995602162,50.446849173939334,28.40394478495547,21.060104965322623,50.56573770614189,13.15000485259315,2.0352148952213156,90.10190445617361,9.179725119261809,0.3408013497674488,0.01780528410066518,0.006980268609694734,0.18913914997499048
Karnataka,Udupi,13.450404228534568,74.72009990316337,1177361,79.0,47.74499919735748,52.25500080264251,50.26871999905011,49.73128000094989,47.527054149067276,28.95484052894567,23.462132684877453,43.592492022412834,5.384075062788728,0.898619879544167,85.71534134390386,8.216681204830124,5.591997696543371,0.019705086205505363,0.013674650340889499,0.38509853817138495
Kerala,Alappuzha,9.542602965599087,76.38010796263319,2127789,87.0,47.61477759307901,52.38522240692098,48.06527644420841,51.93472355579159,41.89851531331349,30.4786799818967,27.521102891311124,37.80783714926621,3.3699770042988284,1.6855524678433809,68.63683382139865,10.552973062648599,20.446388246202986,0.012595233831926003,0.006861582609929837,0.003477788446128822
Kerala,Ernakulam,10.004879301987431,76.26957729035381,3282388,87.0,49.340815284481906,50.659184715518094,49.9259369760435,50.0740630239565,42.559502411049515,31.2187346529417,26.139810406326124,38.06201460643897,2.1749713927786725,0.7304438110302621,45.98959659857397,15.671425803408981,38.02527306339165,0.02620043699891664,0.01870589339224979,0.03582757431479764
Kerala,Idukki,9.80480963855423,77.04586641566264,1108974,83.0,49.848598794922154,50.15140120507785,51.1241481674088,48.875851832591195,44.58679824774972,31.7557490076413,23.577739424008136,46.56222778892923,13.138089801925023,0.6211146519215058,48.860838937612606,7.4127977752408984,43.419142378450715,0.009017343959371454,0.01704278008321205,0.003967631342123441
Kerala,Kannur,11.941523076923056,75.35209891725934,2523003,85.0,46.82697563181653,53.173024368183476,47.3690560475563,52.63094395244371,47.054125579715915,29.408764079947584,23.308771333208878,32.66409116437832,3.2892549077428765,0.5103045854483724,59.833143282033355,29.4285420984438,10.40529876500345,0.016805370425639603,0.04431227390534217,0.007649614368274632
Kerala,Kasaragod,12.33310309912974,75.07768497134369,1307375,79.0,48.082072855913566,51.91792714408643,49.78120313216873,50.21879686783127,52.682895114255665,28.292035567453865,18.890907352519363,35.414322592982124,2.96579022851133,1.8736781719093605,55.836083755617175,37.243560569844156,6.689281958122191,0.011549861363419064,0.027689071612964907,0.009943589253274692
Kerala,Kollam,8.929388820570157,76.6360775852431,2635375,85.0,47.316529905611155,52.68347009438884,47.955985721383065,52.044014278616935,44.675198026846275,30.175781435279607,25.08049139116824,34.60702936014798,3.4982877199639524,0.8162405729734857,64.41720817720439,19.295166722003508,15.997647393634681,0.007892614903002419,0.010321111796233934,0.0023905516292747715
Kerala,Kottayam,9.643701174068417,76.46059673302705,1974551,89.0,49.038439625008415,50.96156037499158,49.23951221798173,50.760487782018274,41.10569947294347,30.19937190784133,28.61653104933729,37.26087601687675,3.193232284200307,0.9380866840106941,49.81375512711497,6.406469116269978,43.48370844814847,0.01033146269708911,0.018130704144891676,0.004203487273815668
Kerala,Kozhikode,11.392924270557026,75.71158720159153,3086293,85.0,47.66047812051546,52.33952187948455,48.44070392663881,51.55929607336118,48.20164514516282,29.47163474109555,22.230844576325058,30.748247169014736,2.080100625572491,0.4313265137172654,56.2149478354777,39.24225600096945,4.261293402797466,0.009623195205380694,0.007614312704594152,0.019473199725366323
Kerala,Malappuram,10.97329875666072,75.93910775606876,4112920,81.0,47.6626824737656,52.33731752623441,48.240774435533915,51.759225564466085,58.49870651507931,25.31926222732268,16.103182167413905,25.831380138684924,2.8545412991256818,0.44792993785437113,27.602263112338676,70.23839510615329,1.9829221088666933,0.004984293397391634,0.004352139112844403,0.001653326590354298
Kerala,Palakkad,10.784926903553291,76.49980490693744,2809934,80.0,48.381136354092305,51.618863645907695,50.12743961577001,49.87256038423,49.65319470137021,28.563339921862934,21.671896919998833,37.09482144420474,8.895191132603115,0.8909461930422566,66.76242217788744,28.930786274695418,4.071163237286,0.007829365387229736,0.008469949828003077,0.002775865910017815
Kerala,Thiruvananthapuram,8.537101759082221,76.88711502868073,3301427,84.0,47.90891938546574,52.091080614534256,48.64124034970819,51.35875965029181,45.0847769767437,29.963951951686347,24.838471364049546,37.30717050536026,2.8614898951271677,0.8658982918598533,66.4578377774217,13.7187646432891,19.100013418439964,0.01223713260962608,0.009117269592815471,0.0023020348473554012
Kerala,Thrissur,10.458932647907687,76.12321940836945,3121200,86.0,47.4421056004101,52.5578943995899,47.87149604935211,52.12850395064789,44.66916570549789,29.855215942586184,25.38068691528899,35.1059528386518,2.368992695117263,0.8933423042419583,58.42118415993849,17.07160707420223,24.268999102909135,0.008298090478021275,0.008906830706138664,0.0019864154812251696
Kerala,Wayanad,11.715277464788736,76.07587007042254,817420,79.0,49.14046634533043,50.859533654669576,50.82769890874168,49.17230109125831,50.501088791563696,30.166866482346897,19.24665410682391,41.6037043380392,12.433020968412812,0.5595654620635658,49.480071444300364,28.649286780357713,21.341905018228083,0.00746250397592425,0.03816887279489124,0.2198380269628832
Madhya Pradesh,Anuppur,23.18184220430107,81.86560000000007,749237,58.0,50.60001041059105,49.39998958940896,58.20497257183431,41.795027428165696,59.38761700236373,25.8289433116624,14.656644025855636,46.24317805981285,17.401169456393635,0.9410907363090717,91.62975133369015,2.8659823260196706,0.2845561551284841,0.0808822842438374,0.011478343968597387,0.2206244486057149
Madhya Pradesh,Ashoknagar,24.63098846153845,77.82974493927134,845071,56.0,52.520675777538216,47.479324222461784,61.88412501145789,38.11587498854211,63.35680670618209,23.04800425053043,13.5054924379135,37.30692450693492,14.482451770324623,1.2494808128547779,92.08859373946095,4.816991708388999,0.0751416153198962,0.9477310190504703,0.15998655734251915,1.786122112816556
Madhya Pradesh,Balaghat,21.80020720640569,80.42170053380796,1701698,67.0,49.49045012687328,50.50954987312672,54.58830992407786,45.411690075922145,56.98854908450266,26.656022396453427,16.26604720696622,52.47781921351498,27.019835481971537,1.1309292248095726,89.28634810642076,2.264914220972229,0.31115979451112946,0.06170307539880754,4.240587930408333,0.2807783754814309
Madhya Pradesh,Barwani,21.702135714285724,74.91004719710673,1385881,40.0,50.461764033131274,49.538235966868726,57.03349177889388,42.96650822110612,66.6482187143052,21.851298921047334,11.443551069680586,47.18276677434787,19.27986602024272,0.5376363482867577,95.16466420998628,4.201082199698242,0.21408764533174204,0.17036094729634074,0.03001700723222268,0.1651656960446099
Madhya Pradesh,Betul,21.96462631578948,77.7873428189117,1575362,60.0,50.733482209168436,49.266517790831564,56.373747165526844,43.62625283447315,59.59385842745984,24.92938131045436,15.399127311690899,49.955502290902025,22.734901565481458,0.7521445864506063,95.58088871002347,2.386118238220803,0.2076348166326216,0.06842871670130421,0.6126210991505444,0.23861182382208024
Madhya Pradesh,Bhind,26.35951126187245,78.7618324287653,1703005,64.0,54.42397409285351,45.57602590714648,61.78669250728595,38.21330749271406,61.1117407171441,23.46886826521355,15.184218484384953,30.579358252030968,9.293337365421712,0.577684739622021,93.68146306088356,3.9210689340313154,0.057134300838811394,0.23763876207057527,0.7172615465016251,1.171458686263399
Madhya Pradesh,Bhopal,23.480726143790854,77.39246623093679,2371061,70.0,52.1340446323397,47.8659553676603,55.41756739668451,44.58243260331549,59.2905032810206,26.38455948623844,13.930092899339156,36.585182751519255,4.436621411258504,1.0430773396382464,74.0538096657994,22.160290266678082,0.9882495642246235,0.455028360721213,0.9146959947466556,1.0944467476796254
Madhya Pradesh,Burhanpur,21.364567254408065,76.24460478589425,757847,54.0,51.264173375364685,48.735826624635315,57.03082370271044,42.96917629728956,61.99641880221206,23.96328018716179,13.991478491041068,43.325235832562505,20.623555942030517,1.0657824072669022,72.90732826018971,23.862336329100728,0.15821135400681138,0.14171725955238987,2.6236166402981076,0.24859899161704144
Madhya Pradesh,Chhatarpur,24.813637376460004,79.56449299191374,1762375,54.0,53.11701539116249,46.88298460883751,60.65641393249229,39.343586067507715,63.13276118873679,22.359599971629194,14.322547698418328,42.658174338605576,13.525157812610825,1.4974111639123342,95.15103198808426,3.9918292077452304,0.11234839350308533,0.054925881268175054,0.014185403220086532,0.5906234484715228
Madhya Pradesh,Chhindwara,22.227966971713823,78.76413136439254,2090922,62.0,50.909024822542406,49.0909751774576,56.5055733357647,43.494426664235306,58.93395353819989,25.601911501242036,15.398804929117393,45.81634322083751,20.21443171959547,0.6975391717146789,92.0129971371481,4.81567461626976,0.23401159871099925,0.1079906376230199,1.1703449483051016,0.37447594888761987
Madhya Pradesh,Damoh,23.76624407960196,79.47049303482588,1264219,59.0,52.35429937376357,47.64570062623644,59.613221615187605,40.386778384812395,60.822452439015706,24.726174816230415,14.349017061126276,45.45059044358612,19.78810633284265,5.330010069457902,93.84608204749335,3.7941211135096053,0.1329674684528551,0.08669384022863127,0.009412926083218176,1.9779009807636176
Madhya Pradesh,Datia,25.90226439560441,78.63916571428574,786754,62.0,53.403859402049434,46.596140597950566,61.820753085289304,38.1792469147107,60.13277339549592,24.802034689369233,15.021976373809348,40.82089191793115,11.915287370639362,0.8692679033090395,95.03516982436696,3.620318422276849,0.08681239625092468,0.06228122132203967,1.0070492174173884,0.05757835358955912
Madhya Pradesh,Dewas,22.7851110021322,76.46088805970157,1563715,59.0,51.502927323713074,48.49707267628692,59.513123953795734,40.48687604620427,60.36611530873592,24.854145416524112,14.726468697940481,47.49433240712022,19.86333826816268,0.7556364171220459,88.03336925206959,11.143910495198933,0.15060289119180925,0.14900413438510215,0.024429004006484557,0.41548491892704237
Madhya Pradesh,Dhar,22.57268171896316,75.1105620736698,2185793,49.0,50.9071536051218,49.0928463948782,59.26450194832077,40.73549805167923,63.012645753737885,24.395859992231653,12.492033783619949,47.02979650863554,20.012736796210802,0.7242222845438704,93.84324133163571,5.316239918418624,0.10344071922638602,0.07352022812773214,0.015005995535716327,0.558104083964035
Madhya Pradesh,Dindori,22.83738437047757,81.04332966714911,704524,54.0,49.95046300764771,50.04953699235229,58.819848223197454,41.180151776802546,59.548148821047974,25.810476293213576,14.551952807853247,55.34587891966775,27.10510926526279,1.1295569774769916,85.93532654671807,0.9561065343409166,0.601540898535749,0.036904349603420185,0.008658328176187042,0.09751264683672949
Madhya Pradesh,Guna,24.49043927178156,77.2235895968791,1241519,53.0,52.30383103279128,47.69616896720872,61.24606257072082,38.75393742927918,63.88545000116792,22.969926356342512,13.056908512878177,41.47314700781865,14.145172164098978,0.9729210749090429,94.42046396390228,3.963129037896319,0.09730016214008806,0.2634675748015133,0.04260909418220744,1.0852834310228034
Madhya Pradesh,Gwalior,26.04074441964285,78.12782433035713,2032036,67.0,53.6568741892368,46.3431258107632,59.17389350211095,40.82610649788905,59.955581495603425,25.57671222360234,14.34280691877506,33.725337543232506,5.922532868512172,1.1117913265316166,90.31823255099812,6.975024064534289,0.20270310171670186,1.2199587015190676,0.21461233954516556,0.8886653582908963
Madhya Pradesh,Harda,22.227659781121783,77.07022571819435,570465,62.0,51.683801810803466,48.316198189196534,57.80938873918593,42.19061126081407,60.96324927909688,24.345402434855774,14.62263241390795,40.48960058899319,17.749730483027005,1.1322342299702874,92.46176364895304,6.773421682311797,0.11972688946736433,0.11849982032201802,0.01630249007388709,0.27573996651854193
Madhya Pradesh,Hoshangabad,22.595268801996703,78.02168094841929,1241350,65.0,52.2596366858662,47.7403633141338,57.879784467657814,42.120215532342186,58.86881218028759,25.6359608490756,15.426833689128772,38.51307044749668,14.658798888307084,0.8041245418294599,94.67136585169372,4.210657751641358,0.3587223587223587,0.25190316993595685,0.12486405929028879,0.31320739517460827
Madhya Pradesh,Indore,22.680265752128648,75.9133801324502,3276697,70.0,51.87013019513248,48.129869804867525,55.84921593847033,44.15078406152967,57.291534737572626,27.297733052522098,15.04856872637293,38.703456560066435,5.662043209976388,1.3301199348001966,83.26143674560083,12.669526660536508,0.5652948685826,0.784204337477649,0.3508411061504924,2.1871720210931924
Madhya Pradesh,Jabalpur,23.18525572327043,79.98328754716981,2463289,71.0,51.85254348961897,48.14745651038103,55.81126442383238,44.18873557616762,56.32181201637323,27.57228242402739,15.909745060364417,40.82444244260417,11.51452387438096,2.839536895589596,87.6496830051204,8.26748302777303,0.9394756360297147,0.5381422967422823,0.17537528077298278,1.3692262661831398
Madhya Pradesh,Jhabua,22.419578015397768,74.40921616766468,1025048,34.0,50.24379346137937,49.75620653862063,60.946770771498606,39.053229228501394,66.74809374780499,21.537430442281728,11.675648359881684,50.2533539892766,11.282300926395642,0.5006594813120947,93.74439050659092,1.5348549531339022,3.748409830564032,0.013755453403157706,0.006341166462448588,0.8654228875135603
Madhya Pradesh,Katni,23.724416229116937,80.33819665871127,1292042,61.0,51.23773066200634,48.76226933799366,58.244654281317146,41.755345718682854,60.24680312249912,25.27642290266106,14.384749102583353,42.09414245047762,17.329312824196116,2.419503390756647,96.02242032379752,2.8816400705240235,0.24441929906303356,0.09032214123070302,0.012151307774824658,0.41345405180326955
Madhya Pradesh,Mandla,22.70348712446353,80.38600543633753,1054905,57.0,49.7932989226518,50.20670107734819,57.5297291400121,42.4702708599879,58.27956071873771,26.405505709044892,15.215588133528613,53.05207577933558,30.23106346069077,0.8960996487835398,80.5302847175812,1.5696200131765419,1.1802010607590256,0.041330735943047,0.028154193979552662,0.1695887307387869
Madhya Pradesh,Mandsaur,24.19278764044944,75.43588667736759,1340411,62.0,50.943404672149065,49.056595327850935,60.2568204066423,39.7431795933577,58.26571103937523,25.877212287872897,15.802242744949124,50.71004341205795,19.870770979945704,0.6383116820139495,88.97181536110939,9.366380908542231,0.08355646141370072,0.06333878191092135,0.018054163984031764,1.4196392002154563
Madhya Pradesh,Morena,26.37313504531724,77.88447341389724,1965970,60.0,54.34553935207557,45.65446064792443,63.37725748822779,36.62274251177221,63.80066837235563,23.015814076511848,13.108236646540893,34.38470576865364,7.539382594851396,0.8318539957374731,95.39794605207608,3.873863792428165,0.05554509987436227,0.028332070174010796,0.16449894962791903,0.3398322456599033
Madhya Pradesh,Neemuch,24.70311893333336,75.06608186666664,826067,62.0,51.16449392119525,48.83550607880475,60.508731727832654,39.491268272167346,57.74289494677792,26.3178410467916,15.885757450666835,50.68378230821471,16.50350395306918,0.4866433352258352,89.737031015644,8.14994425391645,0.18255177848770138,0.13437166718922317,0.027116444549897284,1.7147519511129243
Madhya Pradesh,Panna,24.451325840092657,80.21133001158752,1016520,54.0,52.481013654428835,47.518986345571165,60.10941817977808,39.89058182022192,62.50216424664542,23.121532286624955,14.247334041632234,42.49773737850706,19.561543304607877,1.2002715145791523,95.8906858694369,3.464171880533585,0.041120686262936294,0.01829772163853146,0.003639869358202495,0.4657065281548814
Madhya Pradesh,Raisen,23.292518206521724,78.16305495923909,1331597,62.0,52.59534228448997,47.40465771551003,58.410304552437154,41.589695447562846,62.55188318988403,23.754859766130444,13.632052340159973,38.88849253940945,17.133637279146768,1.300393437353794,89.75951432753303,9.036592903108073,0.12954369828108656,0.16987121478945957,0.018999742414559363,0.798815257168648
Madhya Pradesh,Rajgarh,23.785499026425583,76.66431223922116,1545814,52.0,51.119474917422146,48.880525082577854,60.7771263731823,39.2228736268177,60.500810576175404,23.496876079528324,15.942862465988794,48.23368141315837,21.40102237397255,0.7842470051377461,92.75883126948003,6.917261714540042,0.08041070917975901,0.029757784571753137,0.007827591159091585,0.10344064680485492
Madhya Pradesh,Ratlam,23.503562290502792,75.14895782122909,1455069,57.0,50.73580703045697,49.264192969543025,58.73613600038746,41.26386399961253,60.26552692690175,25.006236817635454,14.676967209115169,47.48778236633452,21.026219375163652,0.8197549394564794,87.07786366144836,10.38239423697433,0.27462615174950467,0.09298528111038033,0.01202692106010093,2.017292650726529
Madhya Pradesh,Rewa,24.861184625158856,81.57572465057183,2365106,61.0,51.79894685481328,48.20105314518673,58.64871819592344,41.35128180407656,61.73401953231694,22.841893767129253,15.315508057566976,41.940868612231334,19.597683993867506,2.151193223474973,95.92965389289105,3.6114237585968665,0.08304067555534508,0.035178127322834575,0.041689463389801555,0.027694318986125784
Madhya Pradesh,Sagar,23.800318709677374,78.71940357771273,2378458,65.0,52.818128384020234,47.181871615979766,58.78215898232473,41.21784101767527,61.8336754317293,23.930042069273455,14.1029187818326,42.29778284922416,15.916194441945159,5.905422757097245,92.42530244385227,4.350717986191053,0.23460578240187552,0.174314618967415,0.04166565060219689,2.6484386102256168
Madhya Pradesh,Satna,24.62777621776502,80.75547048710598,2228935,62.0,51.93040622539464,48.069593774605366,58.39496246120919,41.60503753879081,61.26903655781797,24.00635280974995,14.628017416389442,40.88719500568657,16.670921314439408,2.0662782898559175,96.84548898913606,2.6681352305024597,0.09995805171528108,0.052177385163766556,0.016330669131221862,0.14065013111643004
Madhya Pradesh,Sehore,22.9297199679658,77.06780202883085,1311332,60.0,52.14110537987329,47.85889462012671,60.12696671544745,39.873033284552555,62.34942790994196,23.30492964405658,14.306903209865999,44.694021041200855,17.312625635613255,0.7562539463690354,88.73473689347931,10.522125594433751,0.10706670774449185,0.048805336863586034,0.027224226969219084,0.475241967709169
Madhya Pradesh,Seoni,22.33230487804874,79.66053863928111,1379131,63.0,50.457788273920315,49.542211726079685,56.16111660113354,43.83888339886646,58.72698097570137,26.323605226769608,14.881617482313136,49.62791787002105,27.292838751358644,0.866995231054918,83.02706559420389,5.781829282352438,0.13465000786727294,0.02610339409381705,0.5284487115437185,0.36124197048721257
Madhya Pradesh,Shahdol,23.44859864559819,81.4596831828442,1066063,57.0,50.65563667438041,49.3443633256196,57.72334713684677,42.276652863153224,60.56105502207656,25.24663176566488,14.131904024433828,46.25026851133563,24.294155223471783,1.344104429100344,93.52852504964528,3.9796897556711,0.22250092161532667,0.08554841505614584,0.025139227231411276,0.16293596157075144
Madhya Pradesh,Shajapur,23.566620317220547,76.33555181268885,1512681,59.0,51.59845334211245,48.40154665788755,60.753600443544244,39.246399556455756,59.57376340418106,24.442760899356838,15.916640719358544,47.456866318807464,20.041039716899995,0.582343534426624,87.32859076037843,11.550617744256721,0.053877849989521914,0.041714016372255615,0.011833294660275365,0.909312670682054
Madhya Pradesh,Sheopur,25.78014810996563,77.16911116838484,687861,48.0,52.59550984864675,47.40449015135325,63.47107689962655,36.52892310037345,65.41641407202908,22.54278117235895,11.981490446471017,40.33591088897321,16.756437710525816,0.605645617355832,92.85335263955945,6.018076326467121,0.03343698799612131,0.9285306188314209,0.02922101994443645,0.05509834108926077
Madhya Pradesh,Shivpuri,25.37802451874367,77.74861600810549,1726050,52.0,53.28901248515396,46.71098751484604,63.633739840105854,36.36626015989414,64.08180527794676,22.574780568349702,13.208713536687814,43.989513629385016,12.771356565568784,0.7577416644940761,95.52150864691058,2.966310361808754,0.06471423191680427,0.41429854291590623,0.1981981981981982,0.705136004171374
Madhya Pradesh,Sidhi,24.17547189952905,82.1053783359498,1127033,53.0,51.099834698717785,48.900165301282215,58.7614537646579,41.23854623534209,64.02039691828011,22.509101330662013,13.394372658120924,40.97129365333579,23.24954105159299,1.3889566676397231,95.60900168850424,3.0539478435857688,0.04534028728528801,0.01135725395795864,0.008163026282282772,0.008251754828829325
