State,District,Latitude,Longitude,District code,State name,District name,Male,Female,Population,Literate,Male_Literate,Female_Literate,Workers,Agricultural_Workers,Household_Workers,Hindus,Muslims,Christians,Sikhs,Buddhists,Jains,Literate_Education,Illiterate_Education,Age_Group_0_29,Age_Group_30_49,Age_Group_50,No. of females per 1000 males,Literacy_ratio
Andhra Pradesh,Adilabad,19.284513950073435,78.81321233480176,532,ANDHRA PRADESH,Adilabad,1369597,1371642,2741239,1483347,856350,626997,1323667,484912,84661,2399901,275970,15422,1377,25510,617,1346992,1030640,1536378,704551,422522,1001.0,54.0
Andhra Pradesh,Anantapur,14.312065561843148,77.4601584478577,553,ANDHRA PRADESH,Anantapur,2064495,2016653,4081148,2310960,1338474,972486,2036166,879537,105343,3599372,443456,20463,932,341,1417,2426929,1369069,2189396,1104565,739612,977.0,57.0
Andhra Pradesh,Chittoor,13.33109263067696,78.92763898886037,554,ANDHRA PRADESH,Chittoor,2090204,2083860,4174064,2667878,1484794,1183084,1933357,748093,57269,3737588,397870,24129,867,253,1322,3062955,1170993,2148179,1159053,807430,997.0,64.0
Andhra Pradesh,East Godavari,16.782718320784902,82.2432074720511,545,ANDHRA PRADESH,East Godavari,2569688,2584608,5154296,3288577,1716933,1571644,2093681,1122046,57853,4983330,77777,77825,738,413,4149,3518619,1524603,2724328,1478954,948122,1006.0,64.0
Andhra Pradesh,Guntur,15.884925767634847,80.58657614107885,548,ANDHRA PRADESH,Guntur,2440521,2447292,4887813,2960441,1634726,1325715,2381624,1227956,47436,4217597,559770,89763,764,323,3282,3209266,1474349,2583462,1371811,928462,1003.0,61.0
Andhra Pradesh,Hyderabad,17.38971555555556,78.46668888888888,536,ANDHRA PRADESH,Hyderabad,2018575,1924748,3943323,2892155,1542688,1349467,1413297,23029,46157,2046051,1713405,87522,11446,1268,19560,3445721,556902,2249130,1068243,542669,954.0,73.0
Andhra Pradesh,Karimnagar,18.515483193277312,79.43765428571413,534,ANDHRA PRADESH,Karimnagar,1880800,1895469,3776269,2206829,1257238,949591,1876768,756859,168340,3491139,244723,24979,2086,332,312,2325560,1280393,1940234,1031735,728494,1008.0,58.0
Andhra Pradesh,Khammam,17.683921325051784,80.67008643892335,541,ANDHRA PRADESH,Khammam,1390988,1406382,2797370,1630234,901640,728594,1410062,804537,19799,2595321,158887,33463,655,217,459,1551232,875272,1530602,774583,477955,1011.0,58.0
Andhra Pradesh,Krishna,16.143872753151673,81.14805061000413,547,ANDHRA PRADESH,Krishna,2267375,2250023,4517398,3009718,1598959,1410759,2048880,1006976,48444,4023678,307043,145598,1393,863,6320,3169428,1352499,2340943,1284630,833959,992.0,67.0
Andhra Pradesh,Kurnool,15.43759715142429,77.90086836581717,552,ANDHRA PRADESH,Kurnool,2039227,2014236,4053463,2127161,1246369,880792,2029425,1037302,60791,3328380,670737,33165,737,255,2235,2220285,1517933,2368684,1053618,609027,988.0,52.0
Andhra Pradesh,Mahbubnagar,16.639546224256293,77.98933089244859,538,ANDHRA PRADESH,Mahbubnagar,2050386,2002642,4053028,1940646,1158386,782260,2082501,931084,57846,3673456,334172,21345,658,290,388,2049104,1604319,2360874,1027525,637430,977.0,48.0
Andhra Pradesh,Medak,17.889304978038055,78.13778901903379,535,ANDHRA PRADESH,Medak,1523030,1510258,3033288,1637137,953406,683731,1442203,571129,67642,2637313,342449,34301,1309,554,457,2029580,1199818,1735769,779738,509368,992.0,54.0
Andhra Pradesh,Nalgonda,17.113250515463907,79.16984453608244,539,ANDHRA PRADESH,Nalgonda,1759772,1729037,3488809,2001019,1160757,840262,1741693,863131,45124,3249231,188646,35025,937,241,250,2188695,1294811,1932349,897137,651748,983.0,57.0
Andhra Pradesh,Nizamabad,18.429485849056604,78.07523490566035,533,ANDHRA PRADESH,Nizamabad,1250641,1300694,2551335,1389810,790214,599596,1261076,448281,171311,2123426,391596,19653,2357,1847,542,1804547,1041862,1399773,676401,437573,1040.0,54.0
Andhra Pradesh,Prakasam,15.489039001601704,80.11665790176184,549,ANDHRA PRADESH,Prakasam,1714764,1682684,3397448,1904435,1107686,796749,1700567,889218,42603,3150195,220654,18775,266,97,204,1900943,1218310,1832695,917391,641707,981.0,56.0
Andhra Pradesh,Srikakulam,18.570900998697432,84.25874814010675,542,ANDHRA PRADESH,Srikakulam,1341738,1361376,2703114,1495381,857824,637557,1290288,700833,34479,2666950,9025,18879,193,77,160,1499877,1009992,1423119,747385,528736,1015.0,55.0
Andhra Pradesh,Vizianagaram,18.28329696032972,83.45982854198873,543,ANDHRA PRADESH,Vizianagaram,1161477,1182997,2344474,1238388,707503,530885,1157962,557254,27469,2299129,16423,17853,380,114,815,1240323,1031683,1206366,666394,451469,1019.0,53.0
Andhra Pradesh,Warangal,18.01752608695651,79.87422028985509,540,ANDHRA PRADESH,Warangal,1759281,1753295,3512576,2065023,1179790,885233,1705655,758092,43550,3273755,197333,31377,1453,253,569,2212184,1191252,1891954,941452,664872,997.0,59.0
Andhra Pradesh,West Godavari,16.63297943925236,81.45912990654196,546,ANDHRA PRADESH,West Godavari,1964918,1972048,3936966,2652389,1379223,1273166,1773112,1061787,33861,3733191,86142,109120,288,209,1578,2771842,1028767,2051513,1127764,755533,1004.0,67.0
Arunachal Pradesh,Changlang,27.36048479338845,96.37552644628106,253,ARUNACHAL PRADESH,Changlang,76948,71278,148226,73174,44027,29147,62966,4208,496,47683,2134,35969,94,50381,95,80456,57290,96630,35018,16414,926.0,49.0
Arunachal Pradesh,East Kameng,27.371194055944056,93.04741486013997,247,ARUNACHAL PRADESH,East Kameng,38775,39915,78690,38449,21599,16850,31710,1063,273,12333,652,37136,36,452,23,44247,31763,53752,17922,6960,1029.0,49.0
Arunachal Pradesh,East Siang,28.15382352941176,95.06499226006191,251,ARUNACHAL PRADESH,East Siang,50116,49098,99214,62576,34210,28366,40222,3565,493,27854,2289,18254,69,776,30,65119,21543,61993,25334,11802,980.0,63.0
Arunachal Pradesh,Kurung Kumey,28.04853351800553,93.24531994459834,256,ARUNACHAL PRADESH,Kurung Kumey,45318,46758,92076,36606,20258,16348,38044,2947,833,4859,471,51189,43,121,81,53659,42621,64379,20713,6836,1032.0,40.0
Arunachal Pradesh,Lohit,27.946785273972623,96.59670770547945,259,ARUNACHAL PRADESH,Lohit,76221,69505,145726,83062,48380,34682,60945,7789,786,99020,3846,10684,210,24452,104,91574,52421,94890,35493,15195,912.0,57.0
Arunachal Pradesh,Lower Dibang Valley,28.32651730103806,95.76567335640142,258,ARUNACHAL PRADESH,Lower Dibang Valley,28053,26027,54080,31849,18087,13762,22326,3354,233,28915,2247,9213,33,2932,19,33141,14406,35140,13254,5652,928.0,59.0
Arunachal Pradesh,Lower Subansiri,27.70849297297297,93.96226108108112,255,ARUNACHAL PRADESH,Lower Subansiri,41843,41187,83030,54057,29470,24587,30202,1968,435,9551,1482,34402,27,193,13,54034,17273,55258,20305,7412,984.0,65.0
Arunachal Pradesh,Papum Pare,27.273529716981127,93.54468183962264,248,ARUNACHAL PRADESH,Papum Pare,89182,87391,176573,121048,65794,55254,65772,1859,1543,57027,6148,84397,310,4768,139,110815,30360,120592,43812,11856,980.0,69.0
Arunachal Pradesh,Tawang,27.680683962264148,91.82504245283016,245,ARUNACHAL PRADESH,Tawang,29151,20826,49977,26073,17720,8353,28561,1581,114,11842,787,776,1164,34920,72,19838,19203,30709,13849,5399,714.0,52.0
Arunachal Pradesh,Tirap,26.94406229508198,95.41470327868862,254,ARUNACHAL PRADESH,Tirap,57604,54371,111975,47974,29313,18661,50169,1811,836,20682,1103,83361,61,778,43,57106,50628,71785,25669,14423,944.0,43.0
Arunachal Pradesh,Upper Siang,28.8309244897959,95.00155765306124,252,ARUNACHAL PRADESH,Upper Siang,18699,16621,35320,18195,10723,7472,17644,804,591,5261,411,5643,27,2577,7,20992,11209,21090,8910,5252,889.0,52.0
Arunachal Pradesh,Upper Subansiri,28.277196566523585,93.8991435622318,249,ARUNACHAL PRADESH,Upper Subansiri,41758,41690,83448,45278,24807,20471,33370,1846,481,13474,521,8779,28,297,11,64790,28364,56054,20055,7230,998.0,54.0
Arunachal Pradesh,West Kameng,27.46486582278483,92.65015750452083,246,ARUNACHAL PRADESH,West Kameng,46155,37792,83947,48492,29566,18926,42493,1705,801,31265,1970,8466,328,36087,71,40193,25606,53026,22362,8493,819.0,58.0
Arunachal Pradesh,West Siang,28.106296920289843,94.53510344202908,250,ARUNACHAL PRADESH,West Siang,58168,54106,112274,64746,36777,27969,49177,1384,298,15881,2218,29969,577,3311,49,74220,27956,70415,28305,13469,930.0,58.0
Assam,Barpeta,26.427872264631056,90.97912010178116,303,ASSAM,Barpeta,867004,826618,1693622,897058,499038,398020,561824,98946,30342,492966,1198036,1020,112,49,399,1083591,664161,1072312,405046,215355,953.0,53.0
Assam,Bongaigaon,26.45012521994133,90.6734296187684,319,ASSAM,Bongaigaon,375818,362986,738804,434078,237114,196964,255806,47406,9485,359145,371033,5924,384,236,871,479431,260721,458796,184849,94939,966.0,59.0
Assam,Cachar,24.815570668693017,92.86849650455927,316,ASSAM,Cachar,886284,850333,1736617,1174128,639946,534182,608062,68664,24466,1038985,654816,37635,280,341,1673,1378531,357907,1048990,444899,241776,959.0,68.0
Assam,Darrang,26.58463215962442,92.04141338028155,325,ASSAM,Darrang,475273,453227,928500,487039,268666,218373,324843,81617,10542,327322,597392,1688,431,57,724,575240,375556,583436,226525,118102,954.0,52.0
Assam,Dhemaji,27.586533438485816,94.71336908517353,308,ASSAM,Dhemaji,351249,334884,686133,423028,237761,185267,316800,19181,7224,655052,13475,8711,297,911,167,521393,194984,434221,169630,82051,953.0,62.0
Assam,Dibrugarh,27.30612284482757,95.0998282327587,310,ASSAM,Dibrugarh,676434,649901,1326335,884531,491361,393170,560557,61209,14362,1198401,64526,52968,2261,4673,1055,983760,340744,767147,371864,186774,961.0,67.0
Assam,Goalpara,26.017277777777807,90.59869891598912,302,ASSAM,Goalpara,513292,494891,1008183,563577,304302,259275,362573,75828,14346,347878,579929,77862,771,194,477,657440,375071,650509,239831,117427,964.0,56.0
Assam,Golaghat,26.377219709794485,93.82583397823468,313,ASSAM,Golaghat,543161,523727,1066888,721764,396475,325289,479928,66616,15068,917426,90312,50582,1131,3863,530,820800,258897,629153,289085,148244,964.0,68.0
Assam,Hailakandi,24.457496089385486,92.59154664804475,318,ASSAM,Hailakandi,337890,321406,659296,407366,226836,180530,214240,31248,7313,251194,397653,8480,84,490,247,500042,173306,419921,156243,82841,951.0,62.0
Assam,Jorhat,26.76244824016563,94.30197722567289,312,ASSAM,Jorhat,556805,535451,1092256,794929,432335,362594,498618,53153,31543,1008219,54684,21051,1540,2378,719,892694,209170,604908,315550,171062,962.0,73.0
Assam,Kamrup,26.170939452054807,91.58863273972592,321,ASSAM,Kamrup,778461,739081,1517542,995319,550219,445100,628954,99522,69106,877495,601784,33297,319,185,1330,1142942,392678,895775,408232,212740,949.0,66.0
Assam,Karbi Anglong,26.08966454598031,93.11536570271832,314,ASSAM,Karbi Anglong,490167,466146,956313,557214,314253,242961,383441,60952,9861,766000,20290,157789,370,6260,397,676227,310093,618633,233739,103123,951.0,58.0
Assam,Karimganj,24.69660712250711,92.3679498575498,317,ASSAM,Karimganj,625864,602822,1228686,795297,435942,359355,399171,67033,17435,521962,692489,11990,114,446,524,935508,303785,779850,284368,163990,963.0,65.0
Assam,Kokrajhar,26.497246635730868,90.13997470997688,300,ASSAM,Kokrajhar,452905,434237,887142,489305,275220,214085,341131,56330,12423,529068,252271,101091,93,1718,396,576006,340601,552671,224715,108956,959.0,55.0
Assam,Lakhimpur,27.14128805970149,94.0775949253732,307,ASSAM,Lakhimpur,529674,512463,1042137,683486,375552,307934,429995,43922,10983,797130,193476,46217,412,1074,250,795681,275677,639385,268872,133615,968.0,66.0
Assam,Nagaon,26.26462170626351,92.9306191144708,305,ASSAM,Nagaon,1439112,1384656,2823768,1710716,921850,788866,979998,196174,38122,1225246,1563203,26844,3036,1073,1162,1999919,873197,1778277,678034,366112,962.0,61.0
Assam,Nalbari,26.46323767605632,91.40598521126763,323,ASSAM,Nalbari,396006,375633,771639,531771,293184,238587,267623,34984,19302,491582,277488,429,62,27,1004,606629,188960,442061,211320,117809,949.0,69.0
Assam,Sonitpur,26.73514926829268,92.85197804878044,306,ASSAM,Sonitpur,983904,940206,1924110,1108572,620525,488047,770606,114865,25719,1422824,350536,138166,1363,5088,1003,1298039,627141,1159991,501239,261648,956.0,58.0
Assam,Tinsukia,27.53549291139241,95.69055949367085,309,ASSAM,Tinsukia,680231,647698,1327929,798322,453449,344873,557196,47756,13241,1181347,48373,76877,1999,16228,837,910252,417081,799874,352158,175377,952.0,60.0
Bihar,Araria,26.211528119180603,87.30766554934816,209,BIHAR,Araria,1463333,1348236,2811569,1195768,727643,468125,1069893,691947,24367,1593525,1207442,4116,371,187,1910,1485840,1653766,1872943,612012,324091,921.0,43.0
Bihar,Aurangabad,24.774291867469877,84.45986024096379,235,BIHAR,Aurangabad,1318684,1221389,2540073,1466002,868733,597269,837770,426096,40652,2291133,237353,2218,295,334,775,1833998,784131,1626969,564571,340948,926.0,58.0
Bihar,Aurangabad,24.774291867469877,84.45986024096379,515,MAHARASHTRA,Aurangabad,1924469,1776813,3701282,2503837,1430936,1072901,1575079,396630,28033,2545438,786677,15991,5142,309093,30981,2611982,819734,2211996,909771,571932,923.0,68.0
Maharashtra,Aurangabad,20.0979228832952,75.32072196796334,235,BIHAR,Aurangabad,1318684,1221389,2540073,1466002,868733,597269,837770,426096,40652,2291133,237353,2218,295,334,775,1833998,784131,1626969,564571,340948,926.0,58.0
Maharashtra,Aurangabad,20.0979228832952,75.32072196796334,515,MAHARASHTRA,Aurangabad,1924469,1776813,3701282,2503837,1430936,1072901,1575079,396630,28033,2545438,786677,15991,5142,309093,30981,2611982,819734,2211996,909771,571932,923.0,68.0
Bihar,Banka,24.832355642023337,86.8664916342413,225,BIHAR,Banka,1067140,967623,2034763,965321,590961,374360,771080,462614,26680,1772655,250925,6138,139,113,94,1214645,879831,1291235,462080,278863,907.0,47.0
Bihar,Begusarai,25.54302613168723,86.12560144032932,222,BIHAR,Begusarai,1567660,1402881,2970541,1548673,918507,630166,938182,430870,58167,2554330,407348,2209,402,229,276,1822334,1242551,1951688,644874,369996,895.0,52.0
Bihar,Bhagalpur,25.277192885375477,87.04213814229242,224,BIHAR,Bhagalpur,1615663,1422103,3037766,1573066,937669,635397,983528,475228,60461,2487866,537098,3556,415,180,1050,1976417,1139715,1952879,674660,397654,880.0,52.0
Bihar,Bhojpur,25.50666439393939,84.49407803030304,231,BIHAR,Bhojpur,1430380,1298027,2728407,1599151,973486,625665,822493,364875,47985,2518216,197819,2165,544,647,1472,2172525,1005140,1722387,613072,387389,907.0,59.0
Bihar,Buxar,25.48593018867924,84.08808081760995,232,BIHAR,Buxar,887977,818375,1706352,989807,593544,396263,538322,251790,26122,1591454,105423,2125,248,5090,97,1344677,457814,1074754,375372,253998,922.0,58.0
Bihar,Darbhanga,26.146187719298258,85.97387352472099,215,BIHAR,Darbhanga,2059949,1877436,3937385,1816634,1125566,691068,1223640,642115,44846,3042729,881476,3534,832,245,236,2028545,2203198,2535344,865971,529314,911.0,46.0
Bihar,Gaya,24.7266541547278,84.94291217765044,236,BIHAR,Gaya,2266566,2124852,4391418,2297613,1368803,928810,1664062,783505,87178,3876395,488121,3943,913,870,1723,2784730,1953368,2810026,936630,537333,937.0,52.0
Bihar,Gopalganj,26.44874364161851,84.34636127167629,217,BIHAR,Gopalganj,1267666,1294346,2562012,1382998,793905,589093,728201,338666,26049,2119262,436057,2463,271,167,133,1736879,977719,1642807,546202,370662,1021.0,54.0
Bihar,Jamui,24.78418380462726,86.26316298200514,238,BIHAR,Jamui,916064,844341,1760405,858588,534385,324203,727571,331466,105637,1525746,217621,8443,162,159,87,1085477,765297,1135919,392052,227016,922.0,49.0
Bihar,Jehanabad,25.155679045643165,84.9208124481328,239,BIHAR,Jehanabad,585582,539731,1125313,618881,374412,244469,365378,179519,15075,1045117,75742,691,148,248,60,725997,495877,714244,254582,155106,922.0,55.0
Bihar,Katihar,25.56565356037151,87.70466083591326,212,BIHAR,Katihar,1600430,1470599,3071029,1280190,762256,517934,1013566,672291,20577,1684589,1365645,8659,2754,212,507,1445438,1705551,2054202,660403,353483,919.0,42.0
Bihar,Khagaria,25.53558891454964,86.56593256351037,223,BIHAR,Khagaria,883786,783100,1666886,768028,461153,306875,560805,325731,20816,1486989,175588,1253,143,79,86,925251,903323,1114645,355531,195796,886.0,46.0
Bihar,Kishanganj,26.324336758321294,87.95045007235886,210,BIHAR,Kishanganj,866970,823430,1690400,745056,439921,305135,529064,321867,11633,531236,1149095,5783,398,183,1476,769119,945397,1139615,361114,188447,950.0,44.0
Bihar,Lakhisarai,25.183449321266963,86.12825701357468,227,BIHAR,Lakhisarai,526345,474567,1000912,507270,305182,202088,326576,159970,13546,956396,40886,487,140,52,78,597955,450967,650642,218840,130655,902.0,51.0
Bihar,Madhepura,25.77341929460581,86.8978443983403,213,BIHAR,Madhepura,1047559,954203,2001762,834577,517666,316911,777546,484062,16347,1753829,241760,1342,170,60,133,875510,1202278,1311771,444235,242382,911.0,42.0
Bihar,Madhubani,26.41380538172716,86.16328360450552,207,BIHAR,Madhubani,2329313,2158066,4487379,2155338,1340085,815253,1636938,940642,54934,3652168,818912,3262,564,328,442,2698989,2003079,2860455,1009424,611899,926.0,48.0
Bihar,Munger,25.198537962962963,86.54173672839504,226,BIHAR,Munger,729041,638724,1367765,801817,473741,328076,426658,196449,16690,1252319,110416,1815,338,95,145,849734,498676,860147,316713,188319,876.0,59.0
Bihar,Muzaffarpur,26.18664417177915,85.32745092024543,216,BIHAR,Muzaffarpur,2527497,2273565,4801062,2509232,1487117,1022115,1547586,769001,65253,4032773,745546,5149,933,288,382,2903794,1924438,3016735,1079189,697108,900.0,52.0
Bihar,Nalanda,25.229345508982053,85.48053113772461,229,BIHAR,Nalanda,1497060,1380593,2877653,1519933,919558,600375,1045420,534021,52585,2669775,198033,1978,393,414,561,1985188,1324385,1829128,642197,403129,922.0,53.0
Bihar,Nawada,24.825708836206903,85.61594568965519,237,BIHAR,Nawada,1144668,1074478,2219146,1091012,659474,431538,817041,397505,40018,1964620,244394,1299,250,176,279,1489517,1091439,1440781,485628,288805,939.0,49.0
Bihar,Pashchim Champaran,27.16064352201258,84.30265911949685,203,BIHAR,Pashchim Champaran,2061110,1873932,3935042,1759481,1091226,668255,1478947,998833,38691,3047427,865090,8469,926,1337,296,2182688,1710878,2544205,888205,497793,909.0,45.0
Bihar,Patna,25.40297114503818,85.3198433587787,230,BIHAR,Patna,3078512,2759953,5838465,3459679,2028047,1431632,1881886,658203,85349,5356075,439952,12551,4803,1062,2151,4920726,2590473,3626564,1382654,815638,897.0,59.0
Bihar,Purba Champaran,26.68129336734693,85.00382155612242,204,BIHAR,Purba Champaran,2681209,2418162,5099371,2276957,1407603,869354,1737539,1057417,46164,4086453,990349,4865,668,878,464,3150588,2142757,3316422,1122340,648009,902.0,45.0
Bihar,Purnia,25.81714801901739,87.40447606973065,211,BIHAR,Purnia,1699370,1565249,3264619,1332326,805261,527065,1143318,745015,28840,1989420,1255641,7989,614,353,1450,1486857,1798786,2155512,696556,372692,921.0,41.0
Bihar,Rohtas,24.99170460829495,83.9350762672811,234,BIHAR,Rohtas,1543546,1416372,2959918,1799832,1061783,738049,924879,405544,48512,2645415,300487,2889,2569,1584,252,2188753,876443,1875174,673742,407193,918.0,61.0
Bihar,Saharsa,25.821270696721303,86.54670819672135,214,BIHAR,Saharsa,997174,903487,1900661,804996,506374,298622,649898,356833,18651,1629254,266620,1292,197,60,109,855188,1151349,1249692,415863,233870,906.0,42.0
Bihar,Samastipur,25.793205563909765,85.94833323308269,221,BIHAR,Samastipur,2230003,2031563,4261566,2142880,1293575,849305,1343400,721629,47917,3800598,452370,2126,554,292,231,2549708,1996651,2766930,913339,568812,911.0,50.0
Bihar,Saran,25.89656077844312,84.82266287425155,219,BIHAR,Saran,2022821,1929041,3951862,2157454,1285767,871687,1040231,493461,42103,3534772,406449,2330,371,229,322,2653504,1313700,2516115,847031,585386,954.0,55.0
Bihar,Sheikhpura,25.12472436548223,85.77839390862943,228,BIHAR,Sheikhpura,329743,306599,636342,328676,196431,132245,224655,109696,9917,596102,37653,313,75,41,43,409518,305609,413475,136898,85045,930.0,52.0
Bihar,Sheohar,26.458380748663107,85.29539411764709,205,BIHAR,Sheohar,346673,309573,656246,283698,171645,112053,216372,136334,9119,552492,99342,522,216,73,52,308989,348078,421241,139909,93398,893.0,43.0
Bihar,Sitamarhi,26.56570069686413,85.61172491289203,206,BIHAR,Sitamarhi,1803252,1620322,3423574,1436794,885188,551606,1114583,635907,37932,2672311,740101,2897,261,253,188,1635891,1852765,2206340,739982,449035,899.0,42.0
Bihar,Siwan,26.1736372013652,84.33766552901022,218,BIHAR,Siwan,1675090,1655374,3330464,1930175,1115906,814269,932416,376344,31244,2712635,608282,2618,369,407,359,2421121,1207119,2115448,713597,498299,988.0,58.0
Bihar,Supaul,26.28157893772896,86.78496465201461,208,BIHAR,Supaul,1155283,1073793,2229076,1033283,647672,385611,877682,554271,22555,1809936,409251,3758,271,136,546,1116063,1220268,1453438,495020,277610,929.0,46.0
Bihar,Vaishali,25.8134703180212,85.39247597173153,220,BIHAR,Vaishali,1844535,1650486,3495021,1926740,1152576,774164,1060344,502637,36958,3152346,333980,2203,707,362,246,2271286,1479152,2176701,759132,486032,895.0,55.0
Chandigarh,Chandigarh,30.7426,76.75872465753424,55,CHANDIGARH,Chandigarh,580663,474787,1055450,805438,465346,340092,404136,1687,4799,852574,51447,8720,138329,1160,1960,731491,184265,602411,303748,148945,818.0,76.0
Chhattisgarh,Bastar,19.393866751269048,81.52895126903546,414,CHHATTISGARH,Bastar,698487,714712,1413199,650863,382335,268528,726531,287828,10821,1277975,12413,27951,2099,985,3466,656234,729550,864272,358157,189569,1023.0,46.0
Chhattisgarh,Bilaspur,22.356942982456143,81.99770350877188,30,HIMACHAL PRADESH,Bilaspur,192764,189192,381956,287620,155599,132021,205871,4138,2561,371973,6984,236,2387,113,10,287961,65864,193671,107367,80497,981.0,75.0
Chhattisgarh,Bilaspur,22.356942982456143,81.99770350877188,406,CHHATTISGARH,Bilaspur,1351574,1312055,2663629,1596560,932474,664086,1203197,572292,21658,2540763,57973,20745,6373,2979,2357,1624001,943112,1625484,655032,380114,971.0,60.0
Himachal Pradesh,Bilaspur,31.3780422907489,76.65316079295157,30,HIMACHAL PRADESH,Bilaspur,192764,189192,381956,287620,155599,132021,205871,4138,2561,371973,6984,236,2387,113,10,287961,65864,193671,107367,80497,981.0,75.0
Himachal Pradesh,Bilaspur,31.3780422907489,76.65316079295157,406,CHHATTISGARH,Bilaspur,1351574,1312055,2663629,1596560,932474,664086,1203197,572292,21658,2540763,57973,20745,6373,2979,2357,1624001,943112,1625484,655032,380114,971.0,60.0
Chhattisgarh,Dhamtari,20.554912627291245,81.7569195519348,412,CHHATTISGARH,Dhamtari,397897,401884,799781,546833,303924,242909,402895,182602,7310,777188,10425,2644,1196,667,3612,572304,214637,461125,213021,125429,1010.0,68.0
Chhattisgarh,Durg,21.194463849287164,81.33181639511197,409,CHHATTISGARH,Durg,1682101,1661771,3343872,2303378,1284612,1018766,1496805,560415,22565,3129745,83499,24304,24276,19587,17209,2363288,823501,1919832,898241,523656,988.0,69.0
Chhattisgarh,Jashpur,22.77286167664669,83.8703962075848,402,CHHATTISGARH,Jashpur,424747,426922,851669,495415,280656,214759,487360,197558,7553,629509,15336,189588,474,467,694,529825,328438,488965,214455,148100,1005.0,58.0
Chhattisgarh,Korba,22.491712499999995,82.57604326923074,404,CHHATTISGARH,Korba,612915,593725,1206640,748759,433391,315368,521186,221806,7899,1133176,30195,21059,3666,897,753,780221,410186,729708,309479,166959,969.0,62.0
Chhattisgarh,Koriya,23.50412776859501,82.12515636363635,400,CHHATTISGARH,Koriya,334737,324180,658917,397823,229923,167900,307071,94648,4830,604259,25878,9398,1391,84,1155,457761,179639,399581,165022,94073,968.0,60.0
Chhattisgarh,Mahasamund,21.223727037773354,82.65925427435384,411,CHHATTISGARH,Mahasamund,511967,520787,1032754,637963,364089,273874,499260,278073,6135,1008061,12570,5284,2941,521,1495,702532,384764,582544,272009,177826,1017.0,62.0
Chhattisgarh,Raigarh,22.008265068493166,83.27797698630134,403,CHHATTISGARH,Raigarh,750278,743706,1493984,951639,542756,408883,690167,323788,9959,1422986,17332,47653,2117,781,409,1017307,460166,841958,398257,253488,991.0,64.0
Chhattisgarh,Raigarh,22.008265068493166,83.27797698630134,520,MAHARASHTRA,Raigarh,1344345,1289855,2634200,1939994,1059692,880302,1072969,191182,32919,2239370,227465,17452,7477,121791,12260,1861740,482420,1414154,748339,462741,959.0,74.0
Maharashtra,Raigarh,18.453257637845976,73.0090609418579,403,CHHATTISGARH,Raigarh,750278,743706,1493984,951639,542756,408883,690167,323788,9959,1422986,17332,47653,2117,781,409,1017307,460166,841958,398257,253488,991.0,64.0
Maharashtra,Raigarh,18.453257637845976,73.0090609418579,520,MAHARASHTRA,Raigarh,1344345,1289855,2634200,1939994,1059692,880302,1072969,191182,32919,2239370,227465,17452,7477,121791,12260,1861740,482420,1414154,748339,462741,959.0,74.0
Chhattisgarh,Raipur,20.88603153846152,82.20032759615388,410,CHHATTISGARH,Raipur,2048186,2015686,4063872,2629749,1493158,1136591,1757664,708993,34078,3881485,103038,23181,16707,8397,17137,2674728,1247434,2454299,1038155,560184,984.0,65.0
Chhattisgarh,Surguja,23.32719278728607,83.23582493887531,401,CHHATTISGARH,Surguja,1193129,1166757,2359886,1187941,694686,493255,1155807,523356,12643,2126195,81442,97432,2303,1287,623,1299718,991866,1441436,561915,355077,978.0,50.0
Daman and Diu,Daman,20.431616666666677,72.8392366071429,495,DAMAN AND DIU,Daman,124659,66514,191173,150348,104316,46032,105521,481,409,171537,16087,2618,169,216,244,119741,20641,122589,52868,15428,534.0,79.0
Daman and Diu,Junagadh,20.72568199498111,70.83985639899612,479,GUJARAT,Junagadh,1404356,1338726,2743082,1842818,1046981,795837,1123709,333996,9645,2397056,334858,2586,1110,1291,3841,1886269,669022,1527888,749156,461650,953.0,67.0
Gujarat,Junagadh,20.929523011609785,70.54733890140345,479,GUJARAT,Junagadh,1404356,1338726,2743082,1842818,1046981,795837,1123709,333996,9645,2397056,334858,2586,1110,1291,3841,1886269,669022,1527888,749156,461650,953.0,67.0
Goa,North Goa,15.548723418714054,73.80667997909038,585,GOA,North Goa,416677,401331,818008,663060,351738,311322,327658,14120,8862,622213,57941,134169,618,553,546,636063,99538,380926,260533,175035,963.0,81.0
Goa,South Goa,15.195278658183785,73.941792596877,586,GOA,South Goa,322463,318074,640537,502427,264085,238342,249590,12640,5846,341664,63623,231961,855,542,563,463596,88577,314480,194872,130605,986.0,78.0
Gujarat,Ahmadabad,22.605425564971743,72.23898135593227,474,GUJARAT,Ahmadabad,3788051,3426174,7214225,5435760,3025463,2410297,2594952,268954,54876,6042416,883238,50754,14542,4518,209287,5805299,1129562,3952858,2043895,1198152,904.0,75.0
Gujarat,Amreli,21.04832649310872,71.43457637825426,480,GUJARAT,Amreli,771049,743141,1514190,995459,558180,437279,657139,209935,6083,1410463,99105,919,415,243,2053,1039194,380595,836343,389892,282409,964.0,66.0
Gujarat,Anand,22.282718206229863,72.57782051557454,482,GUJARAT,Anand,1087224,1005521,2092745,1551253,874481,676772,844794,346329,16460,1798794,250919,29789,1524,267,8591,1588947,360506,1134962,585093,366419,925.0,74.0
Gujarat,Banas Kantha,24.258538965517253,71.93205252873561,469,GUJARAT,Banas Kantha,1610379,1510127,3120506,1704923,1048402,656521,1248600,350541,11812,2890305,213505,1686,486,281,12659,1799274,1207376,1984701,738412,394793,938.0,55.0
Gujarat,Bharuch,21.75787276237761,72.67326346710801,488,GUJARAT,Bharuch,805707,745312,1551019,1118276,623047,495229,627124,253577,8902,1188204,343511,9494,1733,442,4813,1056350,273829,844298,442523,254728,925.0,72.0
Gujarat,Bhavnagar,21.70219390341736,72.16272632761141,481,GUJARAT,Bhavnagar,1490201,1390164,2880365,1887255,1087371,799884,1150632,334025,17996,2632574,212863,3457,1410,445,26974,2103528,508664,1708938,720241,445121,933.0,66.0
Gujarat,Gandhinagar,23.193679790026252,72.67221679790026,473,GUJARAT,Gandhinagar,723864,667889,1391753,1030494,582686,447808,534976,129356,8600,1319586,57273,3237,1985,497,6405,1049555,246993,769329,391862,224886,923.0,74.0
Gujarat,Jamnagar,22.410600414263328,69.62062005768233,477,GUJARAT,Jamnagar,1114192,1045927,2160119,1396534,795140,601394,847440,147193,11359,1810443,320805,4392,1873,1086,18856,1320610,502873,1220598,576319,358455,939.0,65.0
Gujarat,Kachchh,23.48057203301311,68.82192301497916,468,GUJARAT,Kachchh,1096737,995634,2092371,1252319,739239,513080,776228,183971,10802,1608921,442355,6192,6353,490,25312,1150801,581952,1278604,524052,286086,908.0,60.0
Gujarat,Kheda,22.88765312500002,73.018803515625,483,GUJARAT,Kheda,1185727,1114158,2299885,1660243,942480,717763,933983,359842,12455,2000884,264482,26629,1403,300,3479,1749234,482078,1260660,628221,388646,940.0,72.0
Gujarat,Mahesana,23.529355452865065,72.45545194085031,471,GUJARAT,Mahesana,1056520,978544,2035064,1502645,847499,655146,812064,242969,10282,1885732,136431,1954,1082,146,7087,1474304,434497,1119451,554432,357578,926.0,74.0
Gujarat,Narmada,21.70666386292833,73.68403208722742,487,GUJARAT,Narmada,301086,289211,590297,370336,211767,158569,294795,188030,2594,559848,22600,4413,147,80,373,380328,192780,336830,157910,93466,961.0,63.0
Gujarat,Navsari,20.866973318871995,72.86184869848157,490,GUJARAT,Navsari,678165,651507,1329672,1001909,539471,462438,591834,206608,7173,1225087,78669,5733,2459,601,13386,967020,261956,673014,390349,258957,961.0,75.0
Gujarat,Panch Mahals,22.80435606837605,73.61984598290586,484,GUJARAT,Panch Mahals,1226961,1163815,2390776,1440805,858054,582751,1097507,376038,10771,2220974,158513,2863,662,337,5236,1575872,781582,1421859,599925,363391,949.0,60.0
Gujarat,Patan,23.80634198473284,71.75162977099237,470,GUJARAT,Patan,694397,649337,1343734,837913,494631,343282,554830,227080,6392,1194745,142797,916,337,66,3602,856932,452891,786357,341381,213465,935.0,62.0
Gujarat,Porbandar,21.55092351651571,69.71896987722886,478,GUJARAT,Porbandar,300209,285240,585449,393678,221621,172057,231169,48964,2371,549749,33565,500,248,91,515,389163,137119,314886,163777,105638,950.0,67.0
Gujarat,Rajkot,22.40603377715488,70.83679439383323,476,GUJARAT,Rajkot,1974445,1830113,3804558,2725056,1514075,1210981,1479050,214285,23780,3397406,361388,5478,1918,1170,33591,2740751,738660,2080568,1052871,659576,927.0,72.0
Gujarat,Sabar Kantha,23.71803594548552,73.13638790459964,472,GUJARAT,Sabar Kantha,1244231,1184358,2428589,1578734,918625,660109,1084878,333867,10909,2260560,148563,6375,614,168,11110,1691327,665058,1393131,630963,400905,952.0,65.0
Gujarat,Surat,21.25761372772093,72.93488716344339,492,GUJARAT,Surat,3402224,2679098,6081322,4571410,2687468,1883942,2553542,325739,42040,5260193,660772,21052,5703,12902,112835,4495898,942150,3563443,1740746,723415,787.0,75.0
Gujarat,Surendranagar,22.82672007299272,71.48358740875906,475,GUJARAT,Surendranagar,909917,846351,1756268,1093626,643221,450405,723500,270861,9518,1620282,109681,1419,512,312,22992,1189959,493427,1033435,439352,280582,930.0,62.0
Gujarat,The Dangs,20.801633877551023,73.6883518367347,489,GUJARAT,The Dangs,113821,114470,228291,140968,77314,63654,118257,40486,1172,203545,3593,20029,69,32,39,149466,91160,146095,51821,30027,1006.0,62.0
Gujarat,Vadodara,22.26133739279589,73.49433010291594,486,GUJARAT,Vadodara,2153736,2011890,4165626,2893080,1614087,1278993,1693473,570361,17680,3713941,384579,23813,9340,2069,27650,2868332,910219,2213474,1190041,733710,934.0,69.0
Gujarat,Valsad,20.44238231644259,72.9148584798345,491,GUJARAT,Valsad,887222,818456,1705678,1170657,655528,515129,743245,183025,11833,1571147,94034,19661,1589,913,13809,1093866,405928,944532,485874,259906,922.0,69.0
Haryana,Ambala,30.3503672316384,76.94970310734456,70,HARYANA,Ambala,598703,529647,1128350,818025,461288,356737,372139,57293,15753,955096,22143,3705,138202,381,4845,793235,222031,617859,308126,201685,885.0,72.0
Haryana,Bhiwani,28.728868064516128,76.02110225806452,81,HARYANA,Bhiwani,866672,767773,1634445,1069871,643158,426713,623006,103788,14855,1611031,15515,873,2401,254,1016,1093788,459364,964960,405760,261428,886.0,65.0
Haryana,Faridabad,28.14873109756098,77.32718536585368,88,HARYANA,Faridabad,966110,843623,1809733,1272739,734940,537799,579229,29288,32286,1588407,161680,9743,34572,640,4883,1306146,346567,1095602,481318,231029,873.0,70.0
Haryana,Fatehabad,29.57298318584072,75.54608716814157,78,HARYANA,Fatehabad,495360,446651,942011,557578,327471,230107,369083,97997,6558,779243,8360,996,150969,171,1172,542399,344534,555745,237009,147469,902.0,59.0
Haryana,Gurgaon,28.043894789579163,77.01935130260523,86,HARYANA,Gurgaon,816690,697742,1514432,1111116,638666,472450,544716,27097,18228,1408801,70842,9725,15097,944,7451,1123831,263720,875531,428101,210307,854.0,73.0
Haryana,Hisar,29.23628731117825,75.84324682779452,80,HARYANA,Hisar,931562,812369,1743931,1114311,670200,444111,691621,144213,16097,1701061,21650,1945,12270,334,3620,1093767,505251,1017830,456536,265109,872.0,64.0
Haryana,Jhajjar,28.59651868131869,76.61137142857145,83,HARYANA,Jhajjar,514667,443738,958405,676091,399480,276611,326534,44845,9254,945693,8247,734,1042,105,645,627288,201028,549975,245095,162356,862.0,71.0
Haryana,Jind,29.45149821958457,76.29598575667653,77,HARYANA,Jind,713006,621146,1334152,832758,502049,330709,523422,102071,9114,1276669,23016,889,29103,172,2594,815843,419624,784085,335704,213478,871.0,62.0
Haryana,Kaithal,29.96068539094649,76.37698930041155,73,HARYANA,Kaithal,571003,503301,1074304,646529,385782,260747,373899,85651,9450,974520,8232,1769,87558,265,351,662470,369869,630194,265813,176320,881.0,60.0
Haryana,Karnal,29.703200647249204,76.87488025889972,74,HARYANA,Karnal,797712,707612,1505324,978013,564516,413497,516062,133723,15311,1341002,31650,2049,126207,532,1516,1004186,429220,884972,380409,234684,887.0,65.0
Haryana,Kurukshetra,30.05652659846548,76.78774680306903,72,HARYANA,Kurukshetra,510976,453679,964655,646893,370828,276065,336780,85890,6726,805175,15970,1943,140395,214,375,642789,266638,552034,250830,160216,888.0,67.0
Haryana,Mahendragarh,28.1352161458333,76.14018072916659,84,HARYANA,Mahendragarh,486665,435423,922088,630255,380440,249815,338584,38320,7639,913251,5660,301,1737,75,644,654072,245602,530000,229392,161258,895.0,68.0
Haryana,Panchkula,30.700897142857134,76.97173238095236,69,HARYANA,Panchkula,299679,261614,561293,405318,229862,175456,211479,12827,9870,490702,23451,2583,40951,1008,1626,388559,119222,309078,157076,93606,873.0,72.0
Haryana,Panipat,29.34352134146342,76.92895914634147,75,HARYANA,Panipat,646857,558580,1205437,786599,464136,322463,412318,62358,15824,1083936,86622,2261,25064,289,4647,752884,296212,739075,298764,167244,864.0,65.0
Haryana,Rewari,28.19164714828897,76.55956007604564,85,HARYANA,Rewari,474335,425997,900332,636947,375453,261494,337727,28215,9782,889133,5713,701,1804,202,1525,635173,206827,518747,230704,150557,898.0,71.0
Haryana,Rohtak,28.892517647058817,76.53123235294117,82,HARYANA,Rohtak,568479,492725,1061204,747582,436025,311557,345967,36568,8521,1043887,8185,732,3916,200,3491,808357,248795,605741,269354,185685,867.0,70.0
Haryana,Sirsa,29.63583446327684,74.90970480225988,79,HARYANA,Sirsa,682582,612607,1295189,782897,456968,325929,502003,147042,11952,940255,9524,2186,338962,370,2256,792628,412353,750228,334344,208185,897.0,60.0
Himachal Pradesh,Chamba,32.66741814595661,76.39354063116366,23,HIMACHAL PRADESH,Chamba,261320,257760,519080,323842,186064,137778,294035,9193,4521,479782,32455,1559,2745,1740,57,344427,154575,306555,130606,81566,986.0,62.0
Himachal Pradesh,Hamirpur,31.67668481012659,76.49767088607594,28,HIMACHAL PRADESH,Hamirpur,217070,237698,454768,358091,180555,177536,241931,8824,3347,449412,3711,243,591,95,293,376978,72551,224044,123941,106641,1095.0,79.0
Himachal Pradesh,Hamirpur,31.67668481012659,76.49767088607594,168,UTTAR PRADESH,Hamirpur,593537,510748,1104285,653299,408125,245174,443655,181449,19876,1010014,91269,814,196,74,41,835920,364848,660774,260368,181109,861.0,59.0
Uttar Pradesh,Hamirpur,25.738158381502892,79.82619479768789,28,HIMACHAL PRADESH,Hamirpur,217070,237698,454768,358091,180555,177536,241931,8824,3347,449412,3711,243,591,95,293,376978,72551,224044,123941,106641,1095.0,79.0
Uttar Pradesh,Hamirpur,25.738158381502892,79.82619479768789,168,UTTAR PRADESH,Hamirpur,593537,510748,1104285,653299,408125,245174,443655,181449,19876,1010014,91269,814,196,74,41,835920,364848,660774,260368,181109,861.0,59.0
Himachal Pradesh,Kangra,32.14093603238864,76.41205910931173,24,HIMACHAL PRADESH,Kangra,750591,759484,1510075,1152640,606443,546197,675170,54849,15662,1461140,19797,3023,8929,14511,194,1176288,271892,766581,419172,319420,1012.0,76.0
Himachal Pradesh,Kinnaur,31.60667184065933,78.51613736263741,34,HIMACHAL PRADESH,Kinnaur,46249,37872,84121,60699,36697,24002,56273,2537,944,64732,448,485,249,18086,29,59428,16944,42360,26599,15075,819.0,72.0
Himachal Pradesh,Kullu,31.90911922077925,77.40922649350647,26,HIMACHAL PRADESH,Kullu,225452,212451,437903,307672,174550,133122,269084,12372,2707,415669,2974,1568,1396,15377,94,310349,103136,244727,120510,72282,942.0,70.0
Himachal Pradesh,Mandi,31.635805940594054,76.96556930693067,27,HIMACHAL PRADESH,Mandi,498065,501712,999777,723747,393669,330078,572671,15822,7134,981412,9460,876,4081,2628,43,763468,218570,524285,279321,194661,1007.0,72.0
Himachal Pradesh,Shimla,31.155725451807253,77.62573042168668,33,HIMACHAL PRADESH,Shimla,425039,388971,814010,612642,342846,269796,430926,26114,7967,791449,11810,2025,4047,3262,185,623801,137576,425721,241956,145577,915.0,75.0
Himachal Pradesh,Sirmaur,30.682764453961443,77.43184689507493,32,HIMACHAL PRADESH,Sirmaur,276289,253566,529855,362645,205617,157028,280083,10730,5313,476830,33215,577,15501,2645,236,368841,140486,310244,136839,82471,918.0,68.0
Himachal Pradesh,Solan,31.03864311926604,76.94442140672783,31,HIMACHAL PRADESH,Solan,308754,271566,580320,428578,244372,184206,298737,10283,4969,548579,14678,1452,13926,574,591,423408,104084,321533,167168,90808,880.0,74.0
Himachal Pradesh,Una,31.58330388349513,76.18353932038836,29,HIMACHAL PRADESH,Una,263692,257481,521173,399715,213281,186434,215346,19604,3427,480138,14275,390,26009,56,70,424468,87735,273223,142351,105358,976.0,77.0
Jammu and Kashmir,Doda,33.359614675767915,76.07163720136518,16,JAMMU AND KASHMIR,Doda,213641,196295,409936,219083,138620,80463,151912,12199,1932,187621,220614,472,422,21,22,248131,163565,263576,93189,52744,919.0,53.0
Jammu and Kashmir,Jammu,32.713199095022645,74.8477520361991,21,JAMMU AND KASHMIR,Jammu,813821,716137,1529958,1137135,641916,495219,508622,36873,10589,1289240,107489,12104,114272,470,1987,1173121,268279,816827,435895,275585,880.0,74.0
Jammu and Kashmir,Kargil,33.565994894894914,76.63675315315312,4,JAMMU AND KASHMIR,Kargil,77785,63017,140802,86236,56301,29935,51873,3763,1222,10341,108239,604,1171,20126,28,82938,39854,87532,35561,17488,810.0,61.0
Jammu and Kashmir,Kathua,32.51781678321678,75.58901398601404,7,JAMMU AND KASHMIR,Kathua,326109,290326,616435,389204,228499,160705,200431,21566,3952,540063,64234,1828,9551,24,16,426572,181297,357864,160123,97684,890.0,63.0
Jammu and Kashmir,Pulwama,33.88414418604652,75.00921860465118,12,JAMMU AND KASHMIR,Pulwama,293064,267376,560440,293958,178326,115632,188420,34080,10615,13840,535159,1109,9440,35,6,310482,190369,342601,137032,80111,912.0,52.0
Jammu and Kashmir,Punch,33.791241290322574,74.29593161290322,5,JAMMU AND KASHMIR,Punch,251899,224936,476835,261724,163333,98391,161393,31583,3930,32604,431279,958,11188,83,10,288430,164044,304979,109818,61334,893.0,55.0
Jammu and Kashmir,Srinagar,34.27312898550724,75.11021159420288,10,JAMMU AND KASHMIR,Srinagar,651124,585705,1236829,748584,431746,316838,407188,10408,20095,42540,1177342,2746,12187,285,74,904049,310225,693238,351561,190330,900.0,61.0
Jammu and Kashmir,Udhampur,33.04770670731707,75.15286951219511,19,JAMMU AND KASHMIR,Udhampur,296784,258201,554985,322354,197543,124811,243672,11396,2641,489044,59771,1962,3418,106,57,330760,194838,339145,140785,74757,870.0,58.0
Jharkhand,Bokaro,23.6814965034965,85.98398374125864,355,JHARKHAND,Bokaro,1072807,989523,2062330,1273520,759088,514432,685368,126406,21671,1636460,241451,13730,4174,1890,2045,1448037,595924,1261238,510375,282115,922.0,62.0
Jharkhand,Chatra,24.11619945750453,84.93295804701627,347,JHARKHAND,Chatra,533935,508951,1042886,510061,303902,206159,397690,188513,14210,903179,116710,6565,888,35,129,587378,467975,692650,222892,126682,953.0,49.0
Jharkhand,Deoghar,24.33070100755672,86.75697632241814,350,JHARKHAND,Deoghar,775022,717051,1492073,793538,489837,303701,551467,209693,39361,1165140,302626,6027,143,188,282,875351,635544,944961,338413,205514,925.0,53.0
Jharkhand,Dhanbad,23.854509090909097,86.40372924901185,354,JHARKHAND,Dhanbad,1405956,1278531,2684487,1722204,1014950,707254,844504,103488,25889,2149480,431762,11243,9727,331,1268,1882625,662522,1634835,648876,356445,909.0,64.0
Jharkhand,Dumka,24.275006125574265,87.27662450229711,362,JHARKHAND,Dumka,668514,652928,1321442,672409,406275,266134,624779,303084,23106,1044726,106865,86404,234,267,162,743623,601078,799323,324226,196164,977.0,51.0
Jharkhand,Garhwa,24.082114689265527,83.68664265536722,346,JHARKHAND,Garhwa,683575,639209,1322784,653476,405161,248315,571431,328673,14487,1104475,194680,17168,123,371,20,716376,557852,860869,284036,177599,935.0,49.0
Jharkhand,Giridih,24.30578509874329,86.08710915619386,349,JHARKHAND,Giridih,1258098,1187376,2445474,1253475,783736,469739,1036277,362610,32544,1856202,508586,14645,937,650,1503,1496125,1047685,1597269,533788,312967,944.0,51.0
Jharkhand,Godda,24.8189,87.2941735483871,351,JHARKHAND,Godda,677927,635624,1313551,604519,376212,228307,552191,307767,18719,937126,289182,37795,97,128,115,696847,653464,820367,308639,183519,938.0,46.0
Jharkhand,Gumla,23.078532948929148,84.55056787479396,366,JHARKHAND,Gumla,514390,510823,1025213,559720,321795,237925,487508,97918,12771,309563,51429,202449,221,531,23,715941,322119,643579,225871,155452,993.0,55.0
Jharkhand,Jamtara,23.97873318077801,86.95325080091534,363,JHARKHAND,Jamtara,404830,386212,791042,426312,258260,168052,326631,135667,11547,550560,164406,4419,520,118,783,428897,366012,480895,189889,116810,954.0,54.0
Jharkhand,Latehar,23.72511185840708,84.48298743362837,359,JHARKHAND,Latehar,369666,357312,726978,350682,209706,140976,313379,142729,9205,473049,69808,47653,120,128,16,404807,349277,484084,152720,89870,967.0,48.0
Jharkhand,Lohardaga,23.488796043165483,84.6605169064748,356,JHARKHAND,Lohardaga,232629,229161,461790,259707,149568,110139,221332,80840,4449,112378,95012,16770,51,33,15,306651,188323,298844,100340,62244,985.0,56.0
Jharkhand,Pakur,24.57260428082189,87.69691969178076,353,JHARKHAND,Pakur,452661,447761,900422,352881,206989,145892,404584,150028,19471,410127,322963,75865,356,283,222,370163,548434,587976,206826,104418,989.0,39.0
Jharkhand,Palamu,24.196925968109337,84.20310842824594,358,JHARKHAND,Palamu,1006302,933567,1939869,1024563,621706,402857,713175,380976,19911,1683169,238295,6164,734,188,284,1163521,803424,1244572,425668,268387,928.0,53.0
Jharkhand,Ranchi,23.184235061391547,85.31781937244203,364,JHARKHAND,Ranchi,1494937,1419316,2914253,1911433,1085244,826189,1142867,267360,38452,1612239,410759,193974,4826,932,2733,2246309,613855,1742293,725938,409166,949.0,66.0
Jharkhand,Sahibganj,24.93667989690721,87.68264097938142,352,JHARKHAND,Sahibganj,589391,561176,1150567,483263,287303,195960,490202,206902,43179,628044,398243,83208,198,245,125,531397,637296,745027,261849,137727,952.0,42.0
Jharkhand,Simdega,22.608760391198054,84.59193691931536,367,JHARKHAND,Simdega,300309,299269,599578,343483,191991,151492,288645,90232,8011,201524,15103,306601,51,753,114,397514,191341,357859,143560,97817,997.0,57.0
Karnataka,Bagalkot,16.15860676328503,75.64526070853468,556,KARNATAKA,Bagalkot,950111,939641,1889752,1113412,641388,472024,818081,303243,44797,1634229,219991,3433,443,412,25198,1170429,608843,1123443,465706,299774,989.0,59.0
Karnataka,Bangalore Rural,12.936827087794448,77.47369314775169,583,KARNATAKA,Bangalore Rural,509172,481751,990923,688749,385311,303438,459891,84108,19457,890429,92252,5368,389,272,1045,705888,205062,535765,278153,176083,946.0,70.0
Karnataka,Belgaum,16.16107219152853,74.72329042357275,555,KARNATAKA,Belgaum,2423063,2356598,4779661,3052032,1725548,1326484,2105668,649517,60342,4038331,528412,18418,2037,1086,178310,3282133,1346776,2669348,1251116,857143,973.0,64.0
Karnataka,Bellary,15.074377548209377,76.47228471074374,565,KARNATAKA,Bellary,1236954,1215641,2452595,1421621,813440,608181,1116880,406092,22832,2103633,320834,14014,1029,284,8044,1468497,787762,1487013,617276,346905,983.0,58.0
Karnataka,Bidar,17.950361730769224,77.19459961538459,558,KARNATAKA,Bidar,870665,832635,1703300,1042673,597198,445475,702608,280091,18095,1289709,335184,35438,1145,30453,680,1212360,515395,1018195,397120,287271,956.0,61.0
Karnataka,Bijapur,16.84015316666667,75.95909166666665,417,CHHATTISGARH,Bijapur,128663,126567,255230,86919,54076,32843,134525,49859,1399,245151,1617,2709,68,1649,15,80069,163278,167348,63802,23927,984.0,34.0
Karnataka,Bijapur,16.84015316666667,75.95909166666665,557,KARNATAKA,Bijapur,1111022,1066309,2177331,1248268,730566,517702,927722,351600,25379,1786830,369588,2433,558,374,8665,1253491,746979,1295274,527085,353549,960.0,57.0
Karnataka,Chikmagalur,13.425288289676422,75.67626502311249,570,KARNATAKA,Chikmagalur,566622,571339,1137961,818345,438257,380088,565774,126600,8873,1004553,101235,26000,182,109,4710,891309,204371,564994,341380,230864,1008.0,72.0
Karnataka,Chitradurga,14.29102220394736,76.57821957236843,566,KARNATAKA,Chitradurga,840843,818613,1659456,1087392,607188,480204,856587,294337,26235,1520553,128751,3175,322,84,3778,1164789,452975,891230,460057,306412,974.0,66.0
Karnataka,Davanagere,14.330414586709884,75.91723841166937,567,KARNATAKA,Davanagere,986400,959097,1945497,1308540,720637,587903,875207,295873,31438,1658465,265805,5420,307,164,6417,1476376,467414,1068518,538551,336173,972.0,67.0
Karnataka,Dharwad,15.343831376975173,75.13831264108359,562,KARNATAKA,Dharwad,937206,909817,1847023,1301664,711776,589888,784833,207642,16463,1390020,386834,28747,1486,715,29037,1363803,428556,1017935,505688,322577,971.0,70.0
Karnataka,Gadag,15.507128256880746,75.64861302752298,561,KARNATAKA,Gadag,537147,527423,1064570,700177,397178,302999,495722,200310,15485,907750,143665,3432,231,79,5993,702799,306138,601578,279069,183409,982.0,66.0
Karnataka,Gulbarga,17.070459515951594,76.87503850385033,579,KARNATAKA,Gulbarga,1301755,1264571,2566326,1427368,828359,599009,1087028,415267,25891,2011014,513125,8344,826,9589,4865,1596603,883704,1570719,604665,388935,971.0,56.0
Karnataka,Hassan,12.945098749999998,76.11049549999997,574,KARNATAKA,Hassan,883667,892754,1776421,1225256,668836,556420,903580,165910,16126,1630814,120011,15611,289,623,5820,1340398,401227,877340,522039,375918,1010.0,69.0
Karnataka,Haveri,14.737582809224318,75.3961230607966,564,KARNATAKA,Haveri,819128,778540,1597668,1085443,603793,481650,730066,311263,20217,1281878,297927,2406,419,68,9834,1188358,383494,904453,426094,266586,950.0,68.0
Karnataka,Kodagu,12.39684468085106,75.79336595744688,576,KARNATAKA,Kodagu,274608,279911,554519,412877,215302,197575,278938,15153,1549,448986,87274,17130,139,126,250,430787,91352,276918,163360,113919,1019.0,74.0
Karnataka,Kolar,13.312799881235172,78.01376947743476,581,KARNATAKA,Kolar,776396,760005,1536401,1016219,564110,452109,717872,201233,24178,1305431,199873,26722,253,150,2494,1079088,399089,841499,419380,274240,979.0,66.0
Karnataka,Koppal,15.651253271028034,76.1617048598131,560,KARNATAKA,Koppal,699926,689994,1389920,809085,468785,340300,654766,273016,18794,1218024,161770,4081,296,85,2898,946512,472182,855430,330393,202984,986.0,58.0
Karnataka,Mandya,12.574901806239744,76.81570098522172,573,KARNATAKA,Mandya,905085,900684,1805769,1149649,638668,510981,871408,216159,17834,1712695,77801,8506,322,299,3607,1270494,504734,902307,527236,375100,995.0,64.0
Karnataka,Mysore,12.248100259403367,76.52881802853437,577,KARNATAKA,Mysore,1511600,1489527,3001127,1962180,1063766,898414,1314268,311002,28162,2631985,290549,39361,1255,16194,14419,2063359,747237,1580116,865220,553705,985.0,65.0
Karnataka,Raichur,16.050795353982295,76.87368606194688,559,KARNATAKA,Raichur,964511,964301,1928812,979769,577213,402556,903413,383526,19095,1634062,272022,10394,538,2265,4156,997638,783126,1196670,465173,265810,1000.0,51.0
Karnataka,Shimoga,14.063845885634592,75.17882078103197,568,KARNATAKA,Shimoga,877415,875338,1752753,1263016,674938,588078,780598,246464,15087,1479424,234664,26521,400,120,9234,1383122,355222,913150,513297,325542,998.0,72.0
Karnataka,Tumkur,13.592467760074973,77.02297966260545,571,KARNATAKA,Tumkur,1350594,1328386,2678980,1813391,1006024,807367,1354646,352286,54523,2413812,245923,9130,477,187,5067,1969712,686274,1351461,760936,564196,984.0,68.0
Karnataka,Udupi,13.450404228534568,74.72009990316337,569,KARNATAKA,Udupi,562131,615230,1177361,926429,465704,460725,513241,63390,10580,1009179,96740,65838,232,161,4534,1018426,204028,559565,340903,276234,1094.0,79.0
Kerala,Alappuzha,9.542602965599087,76.38010796263319,598,KERALA,Alappuzha,1013142,1114647,2127789,1852797,890552,962245,804471,71706,35865,1460447,224545,435056,268,146,74,1991380,163991,891512,648522,585591,1100.0,87.0
Kerala,Ernakulam,10.004879301987431,76.26957729035381,595,KERALA,Ernakulam,1619557,1662831,3282388,2855676,1425723,1429953,1249343,71391,23976,1509557,514397,1248137,860,614,1176,2848777,268315,1396968,1024720,858010,1027.0,87.0
Kerala,Idukki,9.80480963855423,77.04586641566264,596,KERALA,Idukki,552808,556166,1108974,923010,471881,451129,516363,145698,6888,541854,82206,481507,100,189,44,958204,126589,494456,352163,261471,1006.0,83.0
Kerala,Kannur,11.941523076923056,75.35209891725934,589,KERALA,Kannur,1181446,1341557,2523003,2138434,1012956,1125478,824116,82988,12875,1509592,742483,262526,424,1118,193,2290106,279352,1187177,741984,588081,1136.0,85.0
Kerala,Kasaragod,12.33310309912974,75.07768497134369,588,KERALA,Kasaragod,628613,678762,1307375,1037492,516476,521016,462998,38774,24496,729987,486913,87454,151,362,130,1068310,212905,688763,369883,246975,1080.0,79.0
Kerala,Kollam,8.929388820570157,76.6360775852431,600,KERALA,Kollam,1246968,1388407,2635375,2240273,1074345,1165928,912025,92193,21511,1697635,508500,421598,208,272,63,2341963,231286,1177359,795245,660965,1113.0,85.0
Kerala,Kottayam,9.643701174068417,76.46059673302705,597,KERALA,Kottayam,968289,1006262,1974551,1749798,861592,888206,735735,63052,18523,983598,126499,858608,204,358,83,1793308,134393,811653,596302,565048,1039.0,89.0
Kerala,Kozhikode,11.392924270557026,75.71158720159153,591,KERALA,Kozhikode,1470942,1615351,3086293,2615443,1266939,1348504,948981,64198,13312,1734958,1211131,131516,297,235,601,2744977,335520,1487644,909581,686109,1098.0,85.0
Kerala,Malappuram,10.97329875666072,75.93910775606876,592,KERALA,Malappuram,1960328,2152592,4112920,3311315,1597404,1713911,1062424,117405,18423,1135259,2888849,81556,205,179,68,3572086,622345,2406005,1041361,662311,1098.0,81.0
Kerala,Palakkad,10.784926903553291,76.49980490693744,593,KERALA,Palakkad,1359478,1450456,2809934,2239492,1122600,1116892,1042340,249949,25035,1875980,812936,114397,220,238,78,2371669,439934,1395222,802611,608966,1067.0,80.0
Kerala,Thiruvananthapuram,8.537101759082221,76.88711502868073,601,KERALA,Thiruvananthapuram,1581678,1719749,3301427,2785408,1354857,1430551,1231669,94470,28587,2194057,452915,630573,404,301,76,2838716,309042,1488441,989238,820024,1087.0,84.0
Kerala,Thrissur,10.458932647907687,76.12321940836945,594,KERALA,Thrissur,1480763,1640437,3121200,2678548,1282261,1396287,1095727,73941,27883,1823442,532839,757484,259,278,62,2787333,307665,1394214,931841,792182,1108.0,86.0
Kerala,Wayanad,11.715277464788736,76.07587007042254,590,KERALA,Wayanad,401684,415736,817420,645585,328136,317449,340077,101630,4574,404460,234185,174453,61,312,1797,678654,131211,412806,246590,157326,1035.0,79.0
Madhya Pradesh,Anuppur,23.18184220430107,81.86560000000007,461,MADHYA PRADESH,Anuppur,379114,370123,749237,436595,254120,182475,346471,130376,7051,686524,21473,2132,606,86,1653,458365,271733,444954,193520,109813,976.0,58.0
Madhya Pradesh,Ashoknagar,24.63098846153845,77.82974493927134,459,MADHYA PRADESH,Ashoknagar,443837,401234,845071,469109,290304,178805,315270,122387,10559,778214,40707,635,8009,1352,15094,435809,359525,535410,194772,114131,904.0,56.0
Madhya Pradesh,Balaghat,21.80020720640569,80.42170053380796,457,MADHYA PRADESH,Balaghat,842178,859520,1701698,1147623,626468,521155,893014,459796,19245,1519384,38542,5295,1050,72162,4778,1215160,493415,969773,453605,276799,1021.0,67.0
Madhya Pradesh,Barwani,21.702135714285724,74.91004719710673,441,MADHYA PRADESH,Barwani,699340,686541,1385881,549926,313642,236284,653897,267196,7451,1318869,58222,2967,2361,416,2289,503604,825034,923665,302833,158594,982.0,40.0
Madhya Pradesh,Betul,21.964626315789477,77.7873428189117,447,MADHYA PRADESH,Betul,799236,776126,1575362,939769,529783,409986,786980,358157,11849,1505745,37590,3271,1078,9651,3759,982706,603098,938819,392728,242592,971.0,60.0
Madhya Pradesh,Bhind,26.35951126187245,78.7618324287653,420,MADHYA PRADESH,Bhind,926843,776162,1703005,1094917,676513,418404,520768,158266,9838,1595400,66776,973,4047,12215,19950,957870,388473,1040736,399676,258588,837.0,64.0
Madhya Pradesh,Bhopal,23.480726143790854,77.39246623093679,444,MADHYA PRADESH,Bhopal,1236130,1134931,2371061,1660690,920314,740376,867457,105195,24732,1755861,525434,23432,10789,21688,25950,1506450,462581,1405814,625594,330291,918.0,70.0
Madhya Pradesh,Burhanpur,21.364567254408065,76.24460478589425,467,MADHYA PRADESH,Burhanpur,388504,369343,757847,408679,233073,175606,328339,156295,8077,552526,180840,1199,1074,19883,1884,429454,317962,469838,181605,106034,951.0,54.0
Madhya Pradesh,Chhatarpur,24.813637376460004,79.56449299191374,425,MADHYA PRADESH,Chhatarpur,936121,826254,1762375,943033,572010,371023,751797,238364,26390,1676918,70351,1980,968,250,10409,925604,770268,1112636,394060,252417,883.0,54.0
Madhya Pradesh,Chhindwara,22.227966971713823,78.76413136439254,455,MADHYA PRADESH,Chhindwara,1064468,1026454,2090922,1294198,731294,562904,957984,422668,14585,1923920,100692,4893,2258,24471,7830,1353819,663446,1232263,535316,321977,964.0,62.0
Madhya Pradesh,Damoh,23.76624407960196,79.47049303482588,428,MADHYA PRADESH,Damoh,661873,602346,1264219,747715,445737,301978,574595,250165,67383,1186420,47966,1681,1096,119,25005,771117,469038,768929,312593,181403,910.0,59.0
Madhya Pradesh,Datia,25.90226439560441,78.63916571428574,422,MADHYA PRADESH,Datia,420157,366597,786754,491445,303815,187630,321160,93744,6839,747693,28483,683,490,7923,453,513988,260076,473097,195131,118186,873.0,62.0
Madhya Pradesh,Dewas,22.7851110021322,76.46088805970157,437,MADHYA PRADESH,Dewas,805359,758356,1563715,925369,550716,374653,742676,310606,11816,1376591,174259,2355,2330,382,6497,897959,565365,943954,388648,230280,942.0,59.0
Madhya Pradesh,Dhar,22.572681718963157,75.1105620736698,438,MADHYA PRADESH,Dhar,1112725,1073068,2185793,1077338,638479,438859,1027974,437437,15830,2051219,116202,2261,1607,328,12199,978149,1021851,1377326,533243,273050,964.0,49.0
Madhya Pradesh,Dindori,22.83738437047757,81.04332966714911,453,MADHYA PRADESH,Dindori,351913,352611,704524,378714,222759,155955,389925,190962,7958,605435,6736,4238,260,61,687,398176,295655,419531,181841,102522,1002.0,54.0
Madhya Pradesh,Guna,24.49043927178156,77.2235895968791,458,MADHYA PRADESH,Guna,649362,592157,1241519,653980,400537,253443,514897,175615,12079,1172248,49203,1208,3271,529,13474,618849,578034,793150,285176,162104,912.0,53.0
Madhya Pradesh,Gwalior,26.04074441964285,78.12782433035713,421,MADHYA PRADESH,Gwalior,1090327,941709,2032036,1357210,803114,554096,685311,120348,22592,1835299,141735,4119,24790,4361,18058,1253339,554486,1218319,519728,291451,864.0,67.0
Madhya Pradesh,Harda,22.227659781121783,77.07022571819435,448,MADHYA PRADESH,Harda,294838,275627,570465,352550,203807,148743,230979,101256,6459,527462,38640,683,676,93,1573,347639,177731,347774,138882,83417,935.0,62.0
Madhya Pradesh,Hoshangabad,22.595268801996703,78.02168094841929,449,MADHYA PRADESH,Hoshangabad,648725,592625,1241350,810644,469199,341445,478082,181967,9982,1175203,52269,4453,3127,1550,3888,791254,344492,730768,318232,191501,914.0,65.0
Madhya Pradesh,Indore,22.680265752128648,75.9133801324502,439,MADHYA PRADESH,Indore,1699627,1577070,3276697,2309130,1289631,1019499,1268195,185528,43584,2728225,415142,18523,25696,11496,71667,2366526,718174,1877270,894464,493096,928.0,70.0
Madhya Pradesh,Jabalpur,23.18525572327043,79.98328754716981,451,MADHYA PRADESH,Jabalpur,1277278,1186011,2463289,1756468,980307,776161,1005624,283636,69946,2159065,203652,23142,13256,4320,33728,1685390,540029,1387369,679185,391903,929.0,71.0
Madhya Pradesh,Jhabua,22.419578015397768,74.40921616766468,464,MADHYA PRADESH,Jhabua,515023,510025,1025048,352081,214582,137499,515121,115649,5132,960925,15733,38423,141,65,8871,307994,775664,684200,220769,119681,990.0,34.0
Madhya Pradesh,Katni,23.724416229116937,80.33819665871127,450,MADHYA PRADESH,Katni,662013,630029,1292042,790773,460583,330190,543874,223902,31261,1240650,37232,3158,1167,157,5342,820953,465374,778414,326582,185857,952.0,61.0
Madhya Pradesh,Mandla,22.70348712446353,80.38600543633753,454,MADHYA PRADESH,Mandla,525272,529633,1054905,604962,348033,256929,559649,318909,9453,849518,16558,12450,436,297,1789,623632,376944,614794,278553,160510,1008.0,57.0
Madhya Pradesh,Mandsaur,24.19278764044944,75.43588667736759,433,MADHYA PRADESH,Mandsaur,682851,657560,1340411,834591,502898,331693,679723,266350,8556,1192588,125548,1120,849,242,19029,855816,467002,781000,346861,211815,963.0,62.0
Madhya Pradesh,Morena,26.37313504531724,77.88447341389724,419,MADHYA PRADESH,Morena,1068417,897553,1965970,1179685,747652,432033,675993,148222,16354,1875495,76159,1092,557,3234,6681,1168209,706917,1254302,452484,257704,840.0,60.0
Madhya Pradesh,Neemuch,24.70311893333336,75.06608186666664,432,MADHYA PRADESH,Neemuch,422653,403414,826067,508834,307889,200945,418682,136330,4020,741288,67324,1508,1110,224,14165,519073,289113,476995,217403,131227,954.0,62.0
Madhya Pradesh,Panna,24.451325840092657,80.21133001158752,426,MADHYA PRADESH,Panna,533480,483040,1016520,552559,332140,220419,431998,198847,12201,974748,35214,418,186,37,4734,557003,427997,635347,235035,144827,905.0,54.0
Madhya Pradesh,Raisen,23.292518206521724,78.16305495923909,446,MADHYA PRADESH,Raisen,700358,631239,1331597,820220,479093,341127,517838,228151,17316,1195235,120331,1725,2262,253,10637,832809,444877,832939,316319,181524,901.0,62.0
Madhya Pradesh,Rajgarh,23.785499026425583,76.66431223922116,442,MADHYA PRADESH,Rajgarh,790212,755602,1545814,804245,488797,315448,745603,330820,12123,1433879,106928,1243,460,121,1599,742583,706958,935230,363218,246447,956.0,52.0
Madhya Pradesh,Ratlam,23.503562290502792,75.14895782122909,434,MADHYA PRADESH,Ratlam,738241,716828,1455069,825880,485090,340790,690980,305946,11928,1267043,151071,3996,1353,175,29353,819266,622153,876905,363858,213560,971.0,57.0
Madhya Pradesh,Rewa,24.861184625158856,81.57572465057183,430,MADHYA PRADESH,Rewa,1225100,1140006,2365106,1441757,845572,596185,991946,463506,50878,2268838,85414,1964,832,986,655,1508142,766166,1460075,540235,362228,931.0,61.0
Madhya Pradesh,Sagar,23.800318709677374,78.71940357771273,427,MADHYA PRADESH,Sagar,1256257,1122201,2378458,1545719,908607,637112,1006035,378560,140458,2198297,103480,5580,4146,991,62992,1554882,711804,1470688,569166,335432,893.0,65.0
Madhya Pradesh,Satna,24.62777621776502,80.75547048710598,429,MADHYA PRADESH,Satna,1157495,1071440,2228935,1371781,801051,570730,911349,371584,46056,2158623,59471,2228,1163,364,3135,1450133,715509,1365647,535086,326049,926.0,62.0
Madhya Pradesh,Sehore,22.9297199679658,77.06780202883085,445,MADHYA PRADESH,Sehore,683743,627589,1311332,780362,469208,311154,586087,227026,9917,1163607,137980,1404,640,357,6232,765195,508396,817608,305605,187611,918.0,60.0
Madhya Pradesh,Seoni,22.33230487804874,79.66053863928111,456,MADHYA PRADESH,Seoni,695879,683252,1379131,864194,485341,378853,684434,376404,11957,1145052,79739,1857,360,7288,4982,879546,458811,809922,363037,205237,982.0,63.0
Madhya Pradesh,Shahdol,23.44859864559819,81.4596831828442,460,MADHYA PRADESH,Shahdol,540021,526042,1066063,604194,348761,255433,493057,258991,14329,997073,42426,2372,912,268,1737,637863,422736,645619,269145,150655,974.0,57.0
Madhya Pradesh,Shajapur,23.566620317220547,76.33555181268885,436,MADHYA PRADESH,Shajapur,780520,732161,1512681,894612,543509,351103,717871,303157,8809,1321003,174724,815,631,179,13755,890916,544791,901161,369741,240768,938.0,59.0
Madhya Pradesh,Sheopur,25.78014810996563,77.16911116838484,418,MADHYA PRADESH,Sheopur,361784,326077,687861,328025,208201,119824,277455,115261,4166,638702,41396,230,6387,201,379,285152,393141,449974,155063,82416,901.0,48.0
Madhya Pradesh,Shivpuri,25.37802451874367,77.74861600810549,423,MADHYA PRADESH,Shivpuri,919795,806255,1726050,900846,573242,327604,759281,220440,13079,1648749,51200,1117,7151,3421,12171,794589,719547,1106084,389652,227989,877.0,52.0
Madhya Pradesh,Sidhi,24.17547189952905,82.1053783359498,462,MADHYA PRADESH,Sidhi,575912,551121,1127033,600785,353030,247755,461760,262030,15654,1077545,34419,511,128,92,93,661238,477472,721531,253685,150959,957.0,53.0
Madhya Pradesh,Tikamgarh,25.14099852104666,78.89357064846428,424,MADHYA PRADESH,Tikamgarh,760355,684811,1445166,747940,459353,288587,655318,223852,15622,1383475,44143,588,251,109,15569,711045,659348,898323,343824,201875,901.0,52.0
Madhya Pradesh,Ujjain,23.319288862745065,75.80383717647058,435,MADHYA PRADESH,Ujjain,1016289,970575,1986864,1240990,730817,510173,897442,302003,19678,1718204,233133,4659,3241,945,24622,1148280,659279,1156749,508302,320502,955.0,62.0
Madhya Pradesh,Umaria,23.59601063063061,80.90879477477475,431,MADHYA PRADESH,Umaria,330674,314084,644758,356672,210907,145765,289691,145690,8767,620515,15966,667,190,70,220,351218,230782,403030,158140,82984,950.0,55.0
Madhya Pradesh,Vidisha,23.82838307984792,77.9013507604563,443,MADHYA PRADESH,Vidisha,769568,689307,1458875,862918,512344,350574,550402,228308,12408,1287391,149548,1313,914,295,18490,816456,512311,919239,335690,203005,896.0,59.0
Maharashtra,Akola,20.746310479041902,77.12122320359276,501,MAHARASHTRA,Akola,932334,881572,1813906,1411281,758977,652304,768154,388521,9660,1107809,357253,4483,1504,328033,10205,1460317,352687,998769,483200,327932,946.0,78.0
Maharashtra,Amravati,21.16520991810736,77.67583503184723,503,MAHARASHTRA,Amravati,1480768,1407677,2888445,2251875,1207104,1044771,1236322,667943,20998,2055177,421410,7223,2242,383891,11360,2349512,478074,1540590,783549,553265,951.0,78.0
Maharashtra,Bhandara,21.211792649727748,80.10950199637024,506,MAHARASHTRA,Bhandara,605520,594814,1200334,899860,488709,411151,597305,312183,17169,1009352,26502,2145,831,154458,1017,949619,235524,626978,333120,232754,982.0,75.0
Maharashtra,Bid,18.952353340080982,75.69319706477731,523,MAHARASHTRA,Bid,1349106,1235943,2585049,1718507,987185,731322,1255548,373566,21093,2174672,320395,2097,824,68482,8719,1691672,821607,1473882,614615,494436,916.0,66.0
Maharashtra,Buldana,20.56680611183355,76.39017880364096,500,MAHARASHTRA,Buldana,1337560,1248698,2586258,1879874,1048892,830982,1219641,603227,13770,1845424,354236,3531,1668,364229,12242,1940864,600436,1467457,641840,473071,934.0,73.0
Maharashtra,Chandrapur,20.095609090909075,79.31556380471388,509,MAHARASHTRA,Chandrapur,1123834,1080473,2204307,1578615,872565,706050,1058172,473983,21346,1780085,92297,10701,5251,286734,3861,1631602,516728,1163802,629890,403719,961.0,72.0
Maharashtra,Dhule,21.274018690400517,74.58719071837263,498,MAHARASHTRA,Dhule,1054031,996831,2050862,1293916,723388,570528,936370,429536,20646,1825460,187901,3653,1422,13405,12818,1335558,649568,1167569,513908,350747,946.0,63.0
Maharashtra,Gondiya,21.225008411214997,80.17522698598128,507,MAHARASHTRA,Gondiya,661554,660953,1322507,1004243,542837,461406,665419,281414,32525,1153861,26157,1827,2160,125282,1568,1060206,256549,704214,371908,244111,999.0,76.0
Maharashtra,Hingoli,19.59525302245251,77.09239412780653,512,MAHARASHTRA,Hingoli,606294,571051,1177345,790743,450551,340192,569182,226483,8268,863199,127552,992,643,176679,5278,824880,331388,692117,281905,201828,942.0,67.0
Maharashtra,Jalgaon,20.8828943415638,75.55140421810695,499,MAHARASHTRA,Jalgaon,2197365,2032552,4229917,2891882,1629223,1262659,1863571,937174,38930,3457615,560261,7091,3091,143865,27404,3014615,1003050,2352671,1080237,763529,925.0,68.0
Maharashtra,Jalna,19.984612534818933,75.98473607242339,514,MAHARASHTRA,Jalna,1011473,947573,1959046,1195523,699428,496095,930886,300937,16705,1504641,274221,12542,1629,152540,9619,1331287,545980,1150104,454836,341479,937.0,61.0
Maharashtra,Kolhapur,16.44881301587301,74.12897150793648,530,MAHARASHTRA,Kolhapur,1980658,1895343,3876001,2825845,1559760,1266085,1704054,266028,59932,3379906,286558,15573,1570,29766,154882,2901125,778000,1972486,1084858,801590,957.0,73.0
Maharashtra,Latur,18.348687268993856,76.75812607802874,524,MAHARASHTRA,Latur,1273140,1181056,2454196,1650672,932432,718240,1046857,416578,17663,2006984,367664,2387,935,66535,6387,1765952,596213,1406364,584243,453229,928.0,67.0
Maharashtra,Nagpur,21.196556862745105,79.02166176470584,505,MAHARASHTRA,Nagpur,2384975,2268595,4653570,3673808,1959220,1714588,1868560,423587,52419,3492202,390974,34667,20469,668050,24528,3703540,601547,2460820,1361821,818467,951.0,79.0
Maharashtra,Nanded,19.209316983017,77.6829048951049,511,MAHARASHTRA,Nanded,1730075,1631217,3361292,2189425,1255222,934203,1493953,632395,29158,2501741,471951,3902,13540,354189,5049,2327305,884626,2008314,809135,535827,943.0,65.0
Maharashtra,Nandurbar,21.523175625248147,74.32638757443429,497,MAHARASHTRA,Nandurbar,833170,815125,1648295,906509,512099,394410,792065,438176,14599,1521618,96182,8467,685,4969,6191,848475,790613,1011352,390419,241534,978.0,55.0
Maharashtra,Nashik,20.266912871287143,74.03824168316828,516,MAHARASHTRA,Nashik,3157186,2950001,6107187,4345366,2397538,1947828,2763328,730228,56132,5237009,693052,23946,8912,94783,38212,4220456,1481778,3580633,1567252,948469,934.0,71.0
Maharashtra,Osmanabad,18.19459456066944,75.99495575313809,525,MAHARASHTRA,Osmanabad,861535,796041,1657576,1137810,644304,493506,773916,299525,19831,1437623,178925,942,340,28216,4530,1193594,440363,917343,393539,343021,924.0,69.0
Maharashtra,Parbhani,19.31032425249168,76.70163338870431,513,MAHARASHTRA,Parbhani,942870,893216,1836086,1157814,666291,491523,822797,317806,13210,1328385,306364,2081,1371,187899,6238,1266426,552643,1078349,436486,313455,947.0,63.0
Maharashtra,Pune,18.51696171428573,74.12922881632647,521,MAHARASHTRA,Pune,4924105,4505303,9429408,7171723,3940210,3231513,4048993,414461,105711,8090254,673704,134192,27090,340404,127786,6736249,1353077,5184734,2624165,1586132,915.0,76.0
Maharashtra,Ratnagiri,17.210195070127703,73.25725893866404,528,MAHARASHTRA,Ratnagiri,761121,853948,1615069,1199392,619012,580380,714076,153117,17230,1307211,187197,1990,230,113467,3347,1251437,319622,777431,438905,396967,1122.0,74.0
Maharashtra,Sangli,17.154930181086502,74.70713822937628,531,MAHARASHTRA,Sangli,1435728,1386415,2822143,2049467,1121550,927917,1215104,290693,40824,2440312,239607,9098,1260,38210,87453,2124179,579039,1450907,752303,603739,966.0,73.0
Maharashtra,Satara,17.6737908974359,74.18052064102558,527,MAHARASHTRA,Satara,1510842,1492899,3003741,2225694,1201034,1024660,1354947,297241,39772,2691952,146970,4408,1182,141315,12810,2313266,545423,1517324,800492,671702,988.0,74.0
Maharashtra,Sindhudurg,16.170948049777163,73.51329008172343,529,MAHARASHTRA,Sindhudurg,417332,432319,849651,666067,348289,317778,347178,81816,9679,780384,26264,15471,219,24762,1046,702460,121922,382024,242296,222963,1036.0,78.0
Maharashtra,Solapur,17.837357937584812,75.42394823609216,526,MAHARASHTRA,Solapur,2227852,2089904,4317756,2910676,1651266,1259410,1898395,558334,71106,3795424,441254,9882,1279,35497,28134,2951035,976795,2402794,1089900,809935,938.0,67.0
Maharashtra,Thane,19.698767747440264,72.79882742564581,517,MAHARASHTRA,Thane,5865078,5195070,11060148,8227161,4591396,3635765,4492767,418004,124461,8716055,1355630,280700,39149,449617,172052,7739336,1692022,6184519,3241888,1579921,886.0,74.0
Maharashtra,Wardha,20.80743024390242,78.57259105691062,504,MAHARASHTRA,Wardha,668385,632389,1300774,1019458,552617,466841,608235,282170,13785,1057096,53854,2696,2147,175417,5663,1012774,212054,659540,370227,270107,946.0,78.0
Maharashtra,Washim,20.282282394366213,77.25502394366208,502,MAHARASHTRA,Washim,620302,576858,1197160,869917,487703,382214,569792,310195,7122,859949,142672,1707,518,179330,8476,899778,291525,682919,302425,210185,930.0,73.0
Maharashtra,Yavatmal,20.04258346738159,78.05326371760479,510,MAHARASHTRA,Yavatmal,1419965,1352383,2772348,2022574,1115980,906594,1355999,739718,17899,2251401,239236,4567,1596,249874,11422,2117390,718204,1549263,733258,483813,952.0,73.0
Manipur,Bishnupur,24.50712111801243,93.8246236024845,275,MANIPUR,Bishnupur,118782,118617,237399,156333,87313,69020,109937,15109,11567,175102,18691,4264,56,76,16,175322,67610,135220,62907,38815,999.0,66.0
Manipur,Chandel,24.2635812987013,94.09443844155844,280,MANIPUR,Chandel,74579,69603,144182,90302,51053,39249,76238,8315,3040,10810,3086,129049,136,400,59,115663,38191,86255,39324,18329,933.0,63.0
Manipur,Churachandpur,24.30309718875504,93.38671506024085,274,MANIPUR,Churachandpur,138820,135323,274143,195935,104013,91922,122655,8282,5067,12034,2886,254979,152,495,87,243125,57561,168608,67802,37096,975.0,71.0
Manipur,Senapati,25.08465586034914,94.03366234413956,272,MANIPUR,Senapati,247323,231825,479148,264477,148012,116465,233622,30369,4978,43833,1649,426819,140,2409,53,347896,191001,314439,111516,52008,937.0,55.0
Manipur,Tamenglong,24.98312942238265,93.49450740072204,273,MANIPUR,Tamenglong,72371,68280,140651,85006,47403,37603,70675,1924,1710,2995,589,134760,59,425,57,103294,45317,90273,33290,16924,943.0,60.0
Manipur,Thoubal,24.545392553191498,93.97959893617023,276,MANIPUR,Thoubal,210845,211323,422168,269304,152617,116687,195319,33106,21017,267146,107323,4322,106,114,24,315532,118088,251975,107196,62060,1002.0,64.0
Manipur,Ukhrul,25.05900314960629,94.44129566929138,279,MANIPUR,Ukhrul,94718,89280,183998,129829,70148,59681,87929,3852,2233,7553,1115,174112,108,635,70,158906,42156,113715,43646,25165,943.0,71.0
Meghalaya,East Garo Hills,25.82728228228228,90.64684924924916,294,MEGHALAYA,East Garo Hills,161223,156694,317917,192147,102513,89634,126073,19246,2475,17272,3359,289708,56,1004,38,218602,100781,216742,70424,29926,972.0,60.0
Meghalaya,East Khasi Hills,25.303763888888884,91.75922519841272,298,MEGHALAYA,East Khasi Hills,410749,415173,825922,578030,287270,290760,326786,40889,2966,144935,14185,543394,2495,3111,303,634037,168575,545961,192428,86576,1011.0,70.0
Meghalaya,Jaintia Hills,25.33959557069844,92.37608160136298,299,MEGHALAYA,Jaintia Hills,196285,198839,395124,187527,87371,100156,154180,35766,2004,12456,1646,271596,34,284,45,215217,165184,291097,72934,30362,1013.0,47.0
Meghalaya,South Garo Hills,25.240568578553614,90.64560349127176,295,MEGHALAYA,South Garo Hills,73170,69164,142334,82062,45003,37059,53069,5565,1249,7036,1050,132984,27,332,10,95846,44849,97082,30605,14495,945.0,58.0
Meghalaya,West Garo Hills,25.495285185185185,90.03709947089942,293,MEGHALAYA,West Garo Hills,324159,319132,643291,358702,193438,165264,255693,39725,7643,122936,106788,389956,209,3392,144,420622,208900,427629,143604,70599,984.0,56.0
Meghalaya,West Khasi Hills,25.500889926739926,91.25364542124538,296,MEGHALAYA,West Khasi Hills,193715,189746,383461,230678,117307,113371,163345,37184,2475,6498,1533,366881,58,1313,38,251275,133244,278569,69988,33431,980.0,60.0
Mizoram,Aizawl,23.90781335453101,92.85359459459472,283,MIZORAM,Aizawl,199270,201039,400309,340595,169547,171048,174636,11434,3360,13249,5264,379134,105,1570,76,347470,38248,235892,108094,56092,1009.0,85.0
Mizoram,Champhai,23.54166580976866,93.24221799485862,284,MIZORAM,Champhai,63388,62357,125745,100802,51440,49362,60342,5823,980,1075,699,123446,9,151,45,101684,15449,78778,29690,17189,984.0,80.0
Mizoram,Kolasib,24.2020004347826,92.73470391304348,282,MIZORAM,Kolasib,42918,41037,83955,65895,34147,31748,36672,5921,585,4000,4426,75210,16,108,2,65726,14217,52147,20576,11167,956.0,78.0
Mizoram,Lawngtlai,22.36102843137253,92.66964156862753,287,MIZORAM,Lawngtlai,60599,57295,117894,62861,36444,26417,45566,3153,613,1668,522,63892,52,51549,122,74574,54874,80723,25303,11831,945.0,53.0
Mizoram,Lunglei,23.007717036172675,92.63512555425892,286,MIZORAM,Lunglei,82891,78537,161428,121122,64515,56607,78292,10662,813,5231,1290,127124,74,27543,93,124314,32451,100250,39690,21424,947.0,75.0
Mizoram,Mamit,23.73852942502819,92.4330803833147,281,MIZORAM,Mamit,44828,41536,86364,60191,32977,27214,39339,2553,262,2989,1782,69104,13,12328,25,64717,20091,55914,20082,10318,927.0,70.0
Mizoram,Saiha,22.35744801061008,93.02827931034489,288,MIZORAM,Saiha,28594,27980,56574,42233,21861,20372,19461,957,313,933,514,54977,11,102,4,47873,8787,37127,12784,6636,979.0,75.0
Mizoram,Serchhip,23.263864705882344,92.914158496732,285,MIZORAM,Serchhip,32851,32086,64937,54476,27598,26878,32397,1284,926,991,335,63444,6,60,9,54133,5963,39568,15894,9404,977.0,84.0
Nagaland,Dimapur,25.814176811594223,93.75074057971014,265,NAGALAND,Dimapur,197394,181417,378811,278037,150142,127895,151350,8990,5073,108900,31212,234239,566,1270,2148,277956,58926,243392,98601,36618,919.0,73.0
Nagaland,Kohima,25.60311428571428,93.78600657596373,270,NAGALAND,Kohima,138966,129022,267988,197489,107038,90451,114825,2198,2072,25496,4384,234955,998,1519,80,201718,45802,173701,68485,25557,928.0,74.0
Nagaland,Mokokchung,26.478911764705888,94.522426006192,262,NAGALAND,Mokokchung,101092,93530,194622,159494,83479,76015,100067,9166,3798,9840,2057,181847,78,442,66,169448,22555,111243,52853,30363,925.0,82.0
Nagaland,Mon,26.69207374301676,95.03072988826828,261,NAGALAND,Mon,131753,118507,250260,119626,67432,52194,147654,10836,1608,8102,3444,236494,84,1256,314,127058,130529,168773,53600,27437,899.0,48.0
Nagaland,Phek,25.63272986577182,94.56814563758392,266,NAGALAND,Phek,83743,79675,163418,105893,57926,47967,80277,3159,1275,3563,950,158224,31,350,17,112110,44456,108514,37842,16969,951.0,65.0
Nagaland,Tuensang,26.21104453280316,94.85809880715708,267,NAGALAND,Tuensang,101933,94663,196596,117511,63653,53858,98154,3913,1104,2979,1052,191864,27,572,5,127913,66450,134573,43210,18762,929.0,60.0
Nagaland,Wokha,26.202611551155112,94.1990815181518,264,NAGALAND,Wokha,84505,81838,166343,128208,67385,60823,78412,6438,1965,5605,2043,158236,34,318,8,131916,25048,106951,40510,18811,968.0,77.0
Nagaland,Zunheboto,26.028178205128206,94.50026666666668,263,NAGALAND,Zunheboto,71217,69540,140757,102881,53504,49377,79466,11955,2025,2580,772,136995,39,286,6,115295,25988,91709,32267,16730,976.0,73.0
Orissa,Baleshwar,21.48570932311624,87.08085828011933,377,ORISSA,Baleshwar,1185787,1134742,2320529,1621232,902359,718873,932707,358214,28736,2197709,94254,6434,237,111,201,1742405,628627,1303828,622575,390611,957.0,70.0
Orissa,Bhadrak,20.95262735257214,86.81496204516931,378,ORISSA,Bhadrak,760260,746077,1506337,1094140,596269,497871,468599,151377,14451,1398543,104202,745,169,81,111,1232900,323145,848660,393629,260486,981.0,73.0
Orissa,Cuttack,20.407640646029623,85.7776810228802,381,ORISSA,Cuttack,1352760,1271710,2624470,2011469,1103033,908436,936365,248298,51809,2457729,141263,11985,1026,6276,1180,2062622,472182,1372301,743090,499895,940.0,77.0
Orissa,Dhenkanal,20.79887159353349,85.53226836027711,383,ORISSA,Dhenkanal,612593,580218,1192811,829910,464093,365817,435533,163636,17312,1185542,4805,727,124,366,39,859997,341887,641697,326233,222398,947.0,70.0
Orissa,Gajapati,19.121080882352945,84.14015091911759,389,ORISSA,Gajapati,282882,294935,577817,262537,153663,108874,293933,153199,5370,353160,1556,219482,53,2180,66,268110,335821,345387,144043,85072,1043.0,45.0
Orissa,Ganjam,19.2632617564534,84.80297710437702,388,ORISSA,Ganjam,1779218,1749813,3529031,2210050,1262652,947398,1501772,565448,56274,3486059,13315,23975,590,174,170,2340777,1055331,1980232,924756,613249,983.0,63.0
Orissa,Jharsuguda,21.827058566978184,83.93581682242987,371,ORISSA,Jharsuguda,296690,282815,579505,405879,228092,177787,247707,56809,15836,553587,12783,10462,1441,80,70,408064,143508,320156,159477,98555,953.0,70.0
Orissa,Kalahandi,19.784253092783523,83.1124043814433,395,ORISSA,Kalahandi,787101,789768,1576869,802036,484177,317859,751930,436733,18453,1555367,4975,11160,796,175,1225,780451,765368,880160,415778,275533,1003.0,51.0
Orissa,Kandhamal,20.092878624813142,84.02216352765326,390,ORISSA,Kandhamal,359945,373165,733110,399786,233900,165886,355349,162932,11946,580300,2138,148895,82,290,47,450614,287948,436625,177471,117777,1037.0,55.0
Orissa,Kendrapara,20.606319815982264,86.83763247572003,379,ORISSA,Kendrapara,717814,722547,1440361,1089265,579970,509295,466890,143864,16544,1386792,50247,1423,169,62,52,1242976,294723,771284,374559,290894,1007.0,76.0
Orissa,Khordha,20.054162322274863,85.52234834123229,386,ORISSA,Khordha,1167137,1084536,2251673,1749936,957515,792421,792193,116274,39471,2147632,84060,12527,1264,475,476,1945913,371244,1199521,653346,391701,929.0,78.0
Orissa,Koraput,18.82627794779476,82.81278469846964,398,ORISSA,Koraput,678809,700838,1379647,568090,340843,227247,693406,290626,14416,1294151,8850,68550,518,219,491,547812,770707,818578,348803,207206,1032.0,41.0
Orissa,Malkangiri,18.25227930367506,81.98293636363628,399,ORISSA,Malkangiri,303624,309568,613192,244706,147001,97705,310666,106353,7725,600219,1871,10039,213,43,195,204863,390356,381913,146355,83284,1020.0,40.0
Orissa,Mayurbhanj,21.897621545157754,86.4030408052231,376,ORISSA,Mayurbhanj,1256213,1263525,2519738,1369397,794171,575226,1223534,568755,113808,2113079,33706,15008,661,162,109,1455985,1094844,1449729,650135,414076,1006.0,54.0
Orissa,Nayagarh,20.192895622119817,85.05614700460825,385,ORISSA,Nayagarh,502636,460153,962789,688362,392333,296029,343633,120129,17557,955754,5278,383,107,33,24,745059,232558,502136,262086,196994,915.0,71.0
Orissa,Nuapada,20.471309512195116,82.59152536585364,394,ORISSA,Nuapada,301962,308420,610382,299383,180903,118480,305438,149834,8641,601092,4952,1778,724,76,905,338480,316086,344075,152681,112325,1021.0,49.0
Orissa,Puri,19.83509174603177,85.86698989898981,387,ORISSA,Puri,865380,833350,1698730,1291939,704857,587082,621676,163942,25115,1644905,46094,4239,193,243,94,1395194,309790,888134,477430,328666,963.0,76.0
Orissa,Rayagada,19.292840020060204,83.45860120361095,396,ORISSA,Rayagada,471960,495951,967911,407735,241959,165776,467122,248175,9959,874445,4607,84916,219,249,123,346980,583140,577569,245766,140825,1051.0,42.0
Orissa,Sambalpur,21.515752380952385,84.34958483245157,372,ORISSA,Sambalpur,526877,514222,1041099,703691,393192,310499,505840,160798,59288,964188,20120,50637,2506,310,86,708229,282248,565700,286575,186726,976.0,68.0
Orissa,Sundargarh,22.06354819277107,84.50524819277099,374,ORISSA,Sundargarh,1061147,1032290,2093437,1342322,750147,592175,873227,253327,26970,1532352,71391,385011,5713,710,721,1388888,660465,1188918,573238,324436,973.0,64.0
Puducherry,Karaikal,10.876161726078813,79.82369793621002,637,PONDICHERRY,Karaikal,97809,102413,200222,154916,79903,75013,68301,13077,1327,152638,28835,18391,46,63,54,154561,32717,102333,60089,37434,1047.0,77.0
Puducherry,Mahe,12.006420793787758,75.28275021570326,636,PONDICHERRY,Mahe,19143,22673,41816,36470,16610,19860,11802,82,69,27940,12856,958,3,21,14,36858,2993,19760,12543,9428,1184.0,87.0
Puducherry,Yanam,16.707695652173904,82.26187304347832,634,PONDICHERRY,Yanam,27301,28325,55626,39274,19919,19355,16760,3324,146,53537,1191,873,3,1,4,40860,14923,31973,15235,8402,1038.0,71.0
Punjab,Amritsar,31.548679820627772,74.79883856502238,49,PUNJAB,Amritsar,1318408,1172248,2490656,1684770,932981,751789,917856,121599,41642,690939,12502,54344,1716935,876,3152,1485800,540010,1384987,667193,436496,889.0,68.0
Punjab,Bathinda,30.190524611973352,75.05685898004438,46,PUNJAB,Bathinda,743197,645328,1388525,844868,488261,356607,549986,128382,14938,380569,16299,2474,984286,246,1266,793380,438529,754927,377707,255283,868.0,61.0
Punjab,Faridkot,30.591187250996025,74.79751553784862,45,PUNJAB,Faridkot,326671,290837,617508,381285,215767,165518,221555,54058,8225,141363,3125,1227,469789,155,1109,373752,204895,336540,164962,113721,890.0,62.0
Punjab,Fatehgarh Sahib,30.64290947368421,76.36208394736842,40,PUNJAB,Fatehgarh Sahib,320795,279368,600163,426033,238696,187337,214783,21389,8048,152851,16808,1698,427521,48,178,432310,142314,321018,166781,111028,871.0,71.0
Punjab,Firozpur,30.63407535211269,74.40245732394365,43,PUNJAB,Firozpur,1071637,957437,2029074,1227511,707070,520441,756695,227971,14679,906408,6844,19358,1090815,454,1143,1207928,714869,1171770,525459,331259,893.0,60.0
Punjab,Gurdaspur,32.04283371212125,75.3204064393939,35,PUNJAB,Gurdaspur,1212617,1085706,2298323,1634719,907660,727059,757138,100684,30903,1074332,27667,176587,1002874,405,580,1528979,478020,1261421,611353,423301,895.0,71.0
Punjab,Hoshiarpur,31.55157169811319,75.8469857442349,38,PUNJAB,Hoshiarpur,809057,777568,1586625,1199699,637927,561772,499822,74362,15990,1000743,23089,14968,538208,3476,2034,1227466,294723,831741,422782,330671,961.0,76.0
Punjab,Jalandhar,31.250336907216507,75.54400350515463,37,PUNJAB,Jalandhar,1145211,1048379,2193590,1622537,882581,739956,774472,66664,29762,1394329,30233,26016,718363,11385,4011,1575774,387809,1159156,616431,416449,915.0,74.0
Punjab,Kapurthala,31.336592638036837,75.47641165644177,36,PUNJAB,Kapurthala,426311,388857,815168,576567,316254,260313,284165,42387,9861,336124,10190,5445,453692,6662,553,575495,174995,433331,222324,157833,912.0,71.0
Punjab,Ludhiana,30.76596397379912,75.83110851528383,41,PUNJAB,Ludhiana,1867816,1630923,3498739,2560225,1428348,1131877,1284822,98646,71667,1502403,77713,16517,1863408,2007,19620,2372099,631980,1901528,980046,614258,873.0,73.0
Punjab,Mansa,29.919547714285724,75.4304922857143,47,PUNJAB,Mansa,408732,361019,769751,423560,244037,179523,328512,90367,13442,156539,10375,917,598443,123,1577,434158,311513,420050,200882,146103,883.0,55.0
Punjab,Moga,30.756540067340065,75.1600845117845,42,PUNJAB,Moga,525920,469826,995746,627889,348549,279340,359172,82397,18098,158414,9388,3277,818921,178,436,638000,306336,535408,258826,194768,893.0,63.0
Punjab,Muktsar,30.31243303303303,74.5518747747748,44,PUNJAB,Muktsar,475622,426274,901896,524848,300401,224447,335326,111014,5187,254920,4333,1681,638625,240,744,544427,340886,495167,242628,162297,896.0,58.0
Punjab,Patiala,30.214540380693364,76.27505893949697,48,PUNJAB,Patiala,1002522,893164,1895686,1266791,711052,555739,660267,89123,23647,783306,40043,5683,1059944,245,1914,1280816,518772,1042519,517079,335100,891.0,67.0
Punjab,Rupnagar,30.910937330754347,76.53743500967126,51,PUNJAB,Rupnagar,357485,327142,684627,502731,278534,224197,233676,21520,12321,304481,14492,2094,361045,118,653,492696,124100,365300,185424,131707,915.0,73.0
Punjab,Sangrur,30.185045204336895,75.89437014178496,53,PUNJAB,Sangrur,878029,777140,1655169,1002077,570413,431664,568758,91799,18578,389410,179116,2406,1077438,268,3222,1054379,570103,904316,435148,311621,885.0,61.0
Rajasthan,Ajmer,26.199300378787903,74.6990419191919,119,RAJASTHAN,Ajmer,1324085,1258967,2583052,1526673,926268,600405,1053722,145523,35602,2201663,314159,10605,6799,417,45614,1618919,1034334,1561077,629951,388040,951.0,59.0
Rajasthan,Alwar,27.55271738035265,76.65359630562563,104,RAJASTHAN,Alwar,1939026,1735153,3674179,2182476,1359829,822647,1708542,216772,34562,3039279,547335,2696,64532,4384,13221,2262867,1384905,2346721,836000,490137,895.0,59.0
Rajasthan,Banswara,23.453642032967014,74.44246868131869,125,RAJASTHAN,Banswara,907754,889731,1797485,829343,513854,315489,916574,199370,19818,1701234,48834,22250,427,138,22613,748794,1040914,1153029,406214,216554,980.0,46.0
Rajasthan,Baran,24.98023243243244,76.86210651828291,128,RAJASTHAN,Baran,633945,588810,1222755,693307,432607,260700,552583,185037,15258,1133349,79984,1432,3066,84,2795,722755,545842,762204,286344,173100,929.0,57.0
Rajasthan,Barmer,25.77070908045978,71.50297126436782,115,RAJASTHAN,Barmer,1369022,1234729,2603751,1188322,783461,404861,1202482,132696,30565,2244882,321192,1157,450,157,34010,1179796,1501858,1731122,527629,326476,902.0,46.0
Rajasthan,Bharatpur,27.32411858037578,77.21752077244258,105,RAJASTHAN,Bharatpur,1355726,1192736,2548462,1480869,943910,536959,1071154,238894,25068,2143046,371286,1576,23456,899,5758,1524305,1104824,1659515,546362,329127,880.0,58.0
Rajasthan,Bhilwara,25.45119767759564,74.63947595628417,122,RAJASTHAN,Bhilwara,1220736,1187787,2408523,1256126,777582,478544,1148165,163052,30149,2224839,142427,1978,1468,183,35149,1347909,1180456,1439454,589476,365023,973.0,52.0
Rajasthan,Bikaner,28.12489068322981,73.26943322981371,101,RAJASTHAN,Bikaner,1240801,1123136,2363937,1278801,782399,496402,986208,103833,26244,2073356,235741,1901,20072,285,30850,1341957,1015331,1543867,517271,288165,905.0,54.0
Rajasthan,Bundi,25.48580716049379,75.79984074074079,121,RAJASTHAN,Bundi,577160,533746,1110906,585044,371705,213339,526091,111388,11172,1017688,66609,682,11059,144,13455,585809,553622,686771,267648,155958,925.0,53.0
Rajasthan,Chittaurgarh,24.631623761665463,74.80010997846382,126,RAJASTHAN,Chittaurgarh,783171,761167,1544338,821825,514851,306974,802755,123469,15435,1413163,97855,1274,1515,252,25843,868699,715545,880043,398303,258997,972.0,53.0
Rajasthan,Churu,28.29330375536484,74.65846427038629,102,RAJASTHAN,Churu,1051446,988101,2039547,1149269,696729,452540,902829,87983,16594,1777879,249736,958,402,188,7104,1228712,910226,1293193,458725,272176,940.0,56.0
Rajasthan,Dausa,26.91234817629181,76.57342097264443,109,RAJASTHAN,Dausa,857787,776622,1634409,938051,596935,341116,684495,76277,17185,1582335,45488,439,296,94,3737,1005436,681980,1047136,358718,210117,905.0,57.0
Rajasthan,Dhaulpur,26.72397054945053,77.74476219780222,106,RAJASTHAN,Dhaulpur,653647,552869,1206516,683098,435721,247377,523212,74342,12721,1127520,72258,688,1356,92,2739,682444,552106,815651,248416,141365,846.0,57.0
Rajasthan,Dungarpur,23.75104807692308,73.84765641025645,124,RAJASTHAN,Dungarpur,696532,692020,1388552,681591,415820,265771,641515,184330,12514,1340065,28662,830,240,226,16141,675840,764563,868458,317700,191917,994.0,49.0
Rajasthan,Ganganagar,29.256785412667963,73.56192303262948,99,RAJASTHAN,Ganganagar,1043340,925828,1969168,1193343,710908,482435,912672,230438,13790,1437144,50688,2077,474853,938,1988,1181845,710223,1167889,502211,283484,887.0,61.0
Rajasthan,Hanumangarh,29.1813351791531,74.74632573289902,100,RAJASTHAN,Hanumangarh,931184,843508,1774692,1034136,624281,409855,835260,166833,13839,1433067,118673,1542,216997,241,1935,1088552,723454,1058044,453114,242361,906.0,58.0
Rajasthan,Jaipur,27.033459290187885,75.77117286012533,110,RAJASTHAN,Jaipur,3468507,3157671,6626178,4300965,2554793,1746172,2464893,131523,91011,5819980,687452,12708,18782,1020,81079,4433665,2046038,4091148,1646480,884057,910.0,65.0
Rajasthan,Jaisalmer,26.86900838548185,71.18371877346682,114,RAJASTHAN,Jaisalmer,361708,308211,669919,308653,210415,98238,288903,43872,6835,497045,168129,874,1723,98,1521,267105,397649,448969,140294,79977,852.0,46.0
Rajasthan,Jalor,25.07578093797277,72.18647261724662,116,RAJASTHAN,Jalor,936634,892096,1828730,829582,543923,285659,896644,158013,21867,1732852,78990,730,231,144,14640,870570,1033534,1176496,390598,249379,952.0,45.0
Rajasthan,Jhalawar,24.24725541474657,76.11242891705065,129,RAJASTHAN,Jhalawar,725143,685986,1411129,739792,466815,272977,685950,209772,11199,1299751,96164,842,819,46,12488,747822,696680,850546,346110,213674,946.0,52.0
Rajasthan,Jhunjhunun,28.13517401247401,75.52840893970894,103,RAJASTHAN,Jhunjhunun,1095896,1041149,2137045,1370360,815834,554526,894649,68878,13472,1905682,228178,1004,275,56,548,1536668,712584,1298780,494124,330126,950.0,64.0
Rajasthan,Jodhpur,26.678460838536967,73.00450847457628,113,RAJASTHAN,Jodhpur,1923928,1763237,3687165,2031532,1265753,765779,1489741,242017,42412,3224399,411558,6035,4123,514,36697,2036941,1591957,2359786,836322,489280,916.0,55.0
Rajasthan,Karauli,26.51901555555556,76.96081818181815,107,RAJASTHAN,Karauli,783639,674609,1458248,805849,531904,273945,628726,115367,9521,1370977,81553,602,297,70,3424,840673,668926,947173,310688,192042,861.0,55.0
Rajasthan,Kota,25.175718080000014,76.18618928000001,127,RAJASTHAN,Kota,1021161,929853,1951014,1298345,765396,532949,748811,134992,25125,1661307,243993,5665,11058,280,25742,1317870,588142,1177474,495896,275396,911.0,67.0
Rajasthan,Nagaur,27.07862016048146,74.14215667001012,112,RAJASTHAN,Nagaur,1696325,1611418,3307743,1758624,1102750,655874,1425882,263401,29647,2833443,454487,1912,366,163,12940,1910801,1533137,2088323,754143,463469,950.0,53.0
Rajasthan,Pali,25.80490393541874,73.55285640766907,118,RAJASTHAN,Pali,1025422,1012151,2037573,1085693,667381,418312,842327,237280,26119,1870543,143476,1345,1540,141,18974,1216936,983050,1207983,467436,343384,987.0,53.0
Rajasthan,Rajsamand,25.24894767441859,73.96570215946844,123,RAJASTHAN,Rajsamand,581339,575258,1156597,619139,383334,235805,550831,106587,13505,1105676,33677,759,260,100,14966,674367,544517,687165,275099,193668,990.0,54.0
Rajasthan,Sawai Madhopur,26.251081180223288,76.4219283891548,108,RAJASTHAN,Sawai Madhopur,704031,631520,1335551,741748,486184,255564,578068,88804,12070,1165505,155681,945,812,177,9991,759711,586492,841697,309237,183234,897.0,56.0
Rajasthan,Sikar,27.64644058641976,75.29317422839503,111,RAJASTHAN,Sikar,1374990,1302343,2677333,1652117,995275,656842,1006504,87889,22776,2342076,327583,1122,356,177,4050,1859871,967497,1672813,605002,381226,947.0,62.0
Rajasthan,Sirohi,24.7976905263158,72.75309131578943,117,RAJASTHAN,Sirohi,534231,502115,1036346,476806,309900,166906,419829,97823,9443,996562,30479,1284,572,114,6829,497001,577092,649290,244401,142251,940.0,46.0
Rajasthan,Tonk,26.153935071707927,75.79192216427637,120,RAJASTHAN,Tonk,728136,693190,1421326,749659,478329,271330,649161,113426,16004,1243527,153146,754,378,122,22458,816124,661902,880194,334006,205593,952.0,53.0
Rajasthan,Udaipur,24.44076752136749,73.84029839743584,130,RAJASTHAN,Udaipur,1566801,1501619,3068420,1582629,973444,609185,1365783,302968,33535,2869976,104307,7406,4278,209,78647,1535470,1528671,1876436,739287,451034,958.0,52.0
Sikkim,East,27.29600352941175,88.74908392156858,93,NCT OF DELHI,East,907500,801846,1709346,1352998,748382,604616,579692,3094,19541,1410852,178807,15792,53027,2643,46927,1334283,169693,948963,497157,262124,884.0,79.0
Tamil Nadu,Ariyalur,11.190514836795256,79.22249643916912,616,TAMIL NADU,Ariyalur,374703,380191,754894,480604,269582,211022,359851,166837,13564,708397,7942,37403,104,88,65,532701,233438,380484,216103,157771,1015.0,64.0
Tamil Nadu,Chennai,13.058098905608748,80.28139151846806,603,TAMIL NADU,Chennai,2335844,2310888,4646732,3776276,1968079,1808197,1817297,13674,37345,3751322,439270,358662,2851,2804,51708,3642032,419065,2271657,1468902,899279,989.0,81.0
Tamil Nadu,Coimbatore,10.871376995940452,77.07619012178621,632,TAMIL NADU,Coimbatore,1729297,1728748,3458045,2635907,1394790,1241117,1567950,230026,50085,3044145,211035,190314,1112,435,3284,2504188,519919,1579517,1117221,757738,1000.0,76.0
Tamil Nadu,Cuddalore,11.57587300613498,79.63002365371497,617,TAMIL NADU,Cuddalore,1311697,1294217,2605914,1815281,1000322,814959,1169880,539412,32027,2391675,123749,83334,401,236,1280,1868837,634041,1364411,764669,473617,987.0,70.0
Tamil Nadu,Dharmapuri,12.300141200000006,78.11509813333339,630,TAMIL NADU,Dharmapuri,774303,732540,1506843,917709,527599,390110,751170,267345,15341,1452956,38304,14089,164,39,37,1011099,512824,804186,434328,267536,946.0,61.0
Tamil Nadu,Dindigul,10.377801390820574,77.78011279554937,612,TAMIL NADU,Dindigul,1080938,1078837,2159775,1481834,816180,665654,1105155,467959,30829,1879494,105012,169945,313,256,71,1595029,480681,1065734,647806,443528,998.0,69.0
Tamil Nadu,Erode,11.267012155963302,77.42034334862392,610,TAMIL NADU,Erode,1129868,1121876,2251744,1492662,828300,664362,1195773,370212,54322,2115455,76098,55899,435,148,639,1510680,608003,1006543,701326,542295,993.0,66.0
Tamil Nadu,Kancheepuram,12.496424756511884,80.08820360135913,604,TAMIL NADU,Kancheepuram,2012958,1985294,3998252,3013382,1611461,1401921,1673814,272514,54732,3537399,173785,256762,1620,990,4962,2867809,678374,2076492,1200284,715895,986.0,75.0
Tamil Nadu,Kanniyakumari,8.183466300191206,77.32053064053538,629,TAMIL NADU,Kanniyakumari,926345,944029,1870374,1548738,780541,768197,679620,72867,35789,909872,78590,876299,160,438,156,1625788,210901,887052,556548,425849,1019.0,83.0
Tamil Nadu,Karur,10.79532776617955,78.08749686847604,613,TAMIL NADU,Karur,528184,536309,1064493,727044,401726,325318,543298,200837,11340,993666,53292,16483,115,29,7,759410,276930,501585,320645,241843,1015.0,68.0
Tamil Nadu,Madurai,9.904313833333331,78.01366033333332,623,TAMIL NADU,Madurai,1526475,1511777,3038252,2273430,1223810,1049620,1354632,372828,47293,2760502,168881,97711,520,199,1532,2398674,449125,1528178,913715,593827,990.0,75.0
Tamil Nadu,Nagapattinam,10.789468161718286,79.79437299431483,618,TAMIL NADU,Nagapattinam,798127,818323,1616450,1213008,640916,572092,671994,345057,11555,1435072,128617,47579,184,450,963,1306690,253572,828444,463326,323706,1025.0,75.0
Tamil Nadu,Namakkal,11.33766638477801,78.14624841437633,609,TAMIL NADU,Namakkal,869280,857321,1726601,1176131,653312,522819,898245,253726,38797,1673652,32483,16909,183,108,84,1200360,388418,817905,510413,397064,986.0,68.0
Tamil Nadu,Perambalur,11.260137758112096,78.86034011799416,615,TAMIL NADU,Perambalur,282157,283066,565223,375823,208011,167812,299726,118278,5343,521658,32702,10301,83,39,38,443373,109011,291371,158218,115151,1003.0,66.0
Tamil Nadu,Pudukkottai,10.130514816433578,79.05444484265728,621,TAMIL NADU,Pudukkottai,803188,815157,1618345,1110545,608776,501769,761693,305149,13941,1428784,114194,72850,119,81,32,1167183,447346,835853,470428,311175,1015.0,69.0
Tamil Nadu,Ramanathapuram,9.31286995153476,78.99185362412462,626,TAMIL NADU,Ramanathapuram,682658,670787,1353445,978946,536487,442459,602977,153874,25228,1047411,208038,91139,154,86,29,1186606,107292,708322,389764,252888,983.0,72.0
Tamil Nadu,Salem,11.629324202127655,78.2478257978723,608,TAMIL NADU,Salem,1781571,1700485,3482056,2285562,1285107,1000455,1694160,454210,141503,3326357,95487,53841,412,174,992,2335432,955045,1737345,1029479,713294,954.0,66.0
Tamil Nadu,Sivaganga,9.960306580645158,78.56535729032255,622,TAMIL NADU,Sivaganga,668672,670429,1339101,959744,526304,433440,620171,199563,14656,1186078,74310,75481,150,80,109,998410,311112,666218,391356,280462,1003.0,72.0
Tamil Nadu,Thanjavur,10.387692255892237,79.3194869107745,620,TAMIL NADU,Thanjavur,1182416,1223474,2405890,1790998,944264,846734,974079,415361,31200,2075870,190814,133971,231,795,1256,1812871,461123,1193095,712017,499235,1035.0,74.0
Tamil Nadu,Theni,9.924066666666668,77.43458833333332,624,TAMIL NADU,Theni,625683,620216,1245899,870080,479403,390677,591642,315161,14939,1148990,56751,37574,152,79,28,891561,270738,618923,373564,252267,991.0,70.0
Tamil Nadu,Thiruvallur,13.275858101752885,80.19724702864492,602,TAMIL NADU,Thiruvallur,1876062,1852042,3728104,2791721,1495711,1296010,1538054,270586,58240,3325823,143093,233633,1422,951,3693,2687680,610048,1925296,1154775,643614,987.0,75.0
Tamil Nadu,Thiruvarur,10.368927409395978,79.60322893959727,619,TAMIL NADU,Thiruvarur,626693,637584,1264277,946471,503085,443386,540168,295188,10440,1132785,96092,33192,258,151,279,1067502,175564,627880,377118,257116,1017.0,75.0
Tamil Nadu,Tiruvannamalai,12.419318947368414,79.23265631578953,606,TAMIL NADU,Tiruvannamalai,1235889,1228986,2464875,1626813,909803,717010,1238177,525063,46720,2294369,91636,66987,232,157,7898,1782712,672427,1301347,683904,477668,994.0,66.0
Tamil Nadu,Vellore,12.784882632293078,79.02643283582084,605,TAMIL NADU,Vellore,1961688,1974643,3936331,2773928,1504355,1269573,1689330,391955,136415,3397857,414760,111390,676,438,3514,2965827,891430,2096113,1116437,720713,1007.0,70.0
Tamil Nadu,Virudhunagar,9.468872195892564,77.87641469194315,625,TAMIL NADU,Virudhunagar,967709,974579,1942288,1398788,760375,638413,950158,208702,35298,1822626,47838,67405,245,87,98,1450277,403246,987538,575006,378174,1007.0,72.0
Tripura,Dhalai,23.781360477941163,91.94654283088232,291,TRIPURA,Dhalai,194544,183686,378230,276217,151643,124574,155831,42201,2870,307120,8256,22940,175,39120,85,260948,109130,232286,95548,50269,944.0,73.0
Tripura,North Tripura,24.121739755351683,92.17842538226292,292,TRIPURA,North Tripura,352860,341087,693947,520402,275646,244756,248667,43977,7088,507967,105737,44062,151,34717,307,559122,156840,414878,178608,100274,967.0,75.0
Tripura,South Tripura,23.211874098057383,91.6065807585568,290,TRIPURA,South Tripura,447544,428457,876001,646810,351082,295728,366845,111332,6375,736015,49258,39258,245,49420,106,691125,188363,505558,236676,133424,957.0,74.0
Tripura,West Tripura,23.780166241299337,91.41310788863107,289,TRIPURA,West Tripura,879428,846311,1725739,1361354,722998,638356,698178,156108,25163,1512801,152791,53622,499,2128,362,1464673,279053,940424,499719,284637,962.0,79.0
Uttar Pradesh,Agra,26.99512974910393,78.05278291517321,146,UTTAR PRADESH,Agra,2364953,2053844,4418797,2680510,1614594,1065916,1389844,234455,94184,3922718,411313,10076,12057,4049,21508,3141380,963202,2871903,991255,547873,868.0,61.0
Uttar Pradesh,Aligarh,27.93748576850093,78.00146831119557,143,UTTAR PRADESH,Aligarh,1951996,1721893,3673889,2092567,1283380,809187,1174361,267197,78566,2904140,729283,7635,5875,2582,2805,2137251,1352181,2378289,787408,472667,882.0,57.0
Uttar Pradesh,Allahabad,25.392038662316445,82.05172446982063,175,UTTAR PRADESH,Allahabad,3131807,2822584,5954391,3665727,2199340,1466387,2111907,541146,185877,5102041,796756,13782,4377,4391,2247,4061896,1756098,3764404,1335224,818137,901.0,62.0
Uttar Pradesh,Ambedkar Nagar,26.39119025974028,82.68282142857147,178,UTTAR PRADESH,Ambedkar Nagar,1212410,1185478,2397888,1486939,846676,640263,787398,301120,58520,1985654,401678,2536,869,1817,235,1718855,813502,1499494,515229,367234,978.0,62.0
Uttar Pradesh,Auraiya,26.66892394014961,79.42637057356607,162,UTTAR PRADESH,Auraiya,740040,639505,1379545,930836,546198,384638,442023,151727,12533,1273546,101963,1004,371,332,228,1063360,276224,856336,320763,202054,864.0,67.0
Uttar Pradesh,Azamgarh,26.008290954773837,83.01220251256285,191,UTTAR PRADESH,Azamgarh,2285004,2328909,4613913,2771917,1559414,1212503,1372032,452055,115991,3878626,718692,3810,719,5652,183,4024458,1218146,2930243,965876,699954,1019.0,60.0
Uttar Pradesh,Baghpat,29.045793499999988,77.30266300000001,139,UTTAR PRADESH,Baghpat,700070,602978,1303048,797970,489858,308112,416695,74500,20347,917474,364583,1840,483,161,16139,887221,376700,817140,283276,194548,861.0,61.0
Uttar Pradesh,Bahraich,27.691776300578027,81.46779783237004,180,UTTAR PRADESH,Bahraich,1843884,1643847,3487731,1398368,878285,520083,1152160,482897,37965,2291892,1169330,6400,8212,2793,1177,1381933,1920966,2275746,754346,446242,892.0,40.0
Uttar Pradesh,Ballia,25.86075638297873,84.03651978723408,193,UTTAR PRADESH,Ballia,1672902,1566872,3239774,1963590,1160960,802630,1019483,384432,72194,3004240,213440,4463,892,1595,233,2348254,1032533,1975934,724362,502628,937.0,61.0
Uttar Pradesh,Balrampur,27.449076537911324,82.47158326180256,182,UTTAR PRADESH,Balrampur,1114721,1033944,2148665,868357,544943,323414,760253,328768,29916,1333242,805975,3228,900,1866,198,876131,1332817,1415213,442339,283947,928.0,40.0
Uttar Pradesh,Banda,25.351885902503284,80.52487391304344,170,UTTAR PRADESH,Banda,965876,833534,1799410,1002937,630626,372311,701689,273458,19098,1637549,157612,1367,231,168,916,1235531,588025,1120432,408527,265310,863.0,56.0
Uttar Pradesh,Bara Banki,26.922777025232424,81.35762350597606,176,UTTAR PRADESH,Bara Banki,1707073,1553626,3260699,1692458,1010518,681940,1192850,421973,77235,2505444,737106,4857,2090,1553,3016,1760720,1540841,2043335,709494,445269,910.0,52.0
Uttar Pradesh,Bareilly,28.51101940789474,79.43187072368416,150,UTTAR PRADESH,Bareilly,2357665,2090694,4448359,2191759,1342697,849062,1401971,326376,131699,2830768,1536534,14822,28187,4371,931,2409592,1744527,2893965,952233,514141,887.0,49.0
Uttar Pradesh,Basti,26.833880454545447,82.69790590909092,185,UTTAR PRADESH,Basti,1255272,1209192,2464464,1393783,819719,574064,783688,282260,36856,2082976,364510,3493,900,9753,107,1674771,1021192,1574037,519265,363891,963.0,57.0
Uttar Pradesh,Bijnor,29.313974259681096,78.45098815489754,134,UTTAR PRADESH,Bijnor,1921215,1761498,3682713,2135393,1241471,893922,1088036,311489,52549,2032081,1585210,6184,50624,1736,2134,2453411,1308683,2404576,786305,450186,917.0,58.0
Uttar Pradesh,Bulandshahr,28.34875862068968,78.01082758620684,142,UTTAR PRADESH,Bulandshahr,1845260,1653911,3499171,2031656,1253314,778342,1173260,241137,65937,2707195,777407,4088,2765,669,1572,2184539,1185318,2246254,753949,472808,896.0,58.0
